Program,Org Name,Site Location,State,Speciality Description,Star Rating,API_Place_Search,API_Place_Detail
DES-Employment Support Service,APM Employment Services,ABBOTSFORD,VIC,All Client Types,4,"[{'candidates': [{'geometry': {'location': {'lat': -37.8105155, 'lng': 145.0022737}, 'viewport': {'northeast': {'lat': -37.80927257010728, 'lng': 145.0036062298928}, 'southwest': {'lat': -37.81197222989272, 'lng': 145.0009065701073}}}, 'name': 'APM', 'opening_hours': {'open_now': False}, 'place_id': 'ChIJkdKdSn1D1moR1_e0Lyb5H-A'}], 'status': 'OK'}]","[{'html_attributions': [], 'result': {'address_components': [{'long_name': 'Ground Floor', 'short_name': 'Ground Floor', 'types': ['subpremise']}, {'long_name': '485', 'short_name': '485', 'types': ['street_number']}, {'long_name': 'Victoria Street', 'short_name': 'Victoria St', 'types': ['route']}, {'long_name': 'Abbotsford', 'short_name': 'Abbotsford', 'types': ['locality', 'political']}, {'long_name': 'City of Yarra', 'short_name': 'Yarra', 'types': ['administrative_area_level_2', 'political']}, {'long_name': 'Victoria', 'short_name': 'VIC', 'types': ['administrative_area_level_1', 'political']}, {'long_name': 'Australia', 'short_name': 'AU', 'types': ['country', 'political']}, {'long_name': '3067', 'short_name': '3067', 'types': ['postal_code']}], 'formatted_address': 'Ground Floor/485 Victoria St, Abbotsford VIC 3067, Australia', 'formatted_phone_number': '(03) 9428 8783', 'url': 'https://maps.google.com/?cid=16149900731178350551', 'website': 'https://apm.net.au/?utm_source=google&utm_medium=organic&utm_campaign=gmb&utm_term=vic&utm_content=abbotsford'}, 'status': 'OK'}]"
DES-Employment Support Service,APM Employment Services,AIRPORT WEST,VIC,All Client Types,2,"[{'candidates': [{'geometry': {'location': {'lat': -37.7139126, 'lng': 144.8898472}, 'viewport': {'northeast': {'lat': -37.71246412010727, 'lng': 144.8913788798928}, 'southwest': {'lat': -37.71516377989272, 'lng': 144.8886792201073}}}, 'name': 'APM', 'opening_hours': {'open_now': False}, 'place_id': 'ChIJ4Siak0tb1moRcQ0cHrFFpiY'}], 'status': 'OK'}]","[{'html_attributions': [], 'result': {'address_components': [{'long_name': 'Unit 3', 'short_name': 'Unit 3', 'types': ['subpremise']}, {'long_name': '101-103', 'short_name': '101-103', 'types': ['street_number']}, {'long_name': 'Matthews Avenue', 'short_name': 'Matthews Ave', 'types': ['route']}, {'long_name': 'Airport West', 'short_name': 'Airport West', 'types': ['locality', 'political']}, {'long_name': 'Moonee Valley City', 'short_name': 'Moonee Valley', 'types': ['administrative_area_level_2', 'political']}, {'long_name': 'Victoria', 'short_name': 'VIC', 'types': ['administrative_area_level_1', 'political']}, {'long_name': 'Australia', 'short_name': 'AU', 'types': ['country', 'political']}, {'long_name': '3042', 'short_name': '3042', 'types': ['postal_code']}], 'formatted_address': 'Unit 3/101-103 Matthews Ave, Airport West VIC 3042, Australia', 'formatted_phone_number': '(03) 9338 8153', 'url': 'https://maps.google.com/?cid=2784990046591913329', 'website': 'https://apm.net.au/?utm_source=google&utm_medium=organic&utm_campaign=gmb&utm_term=vic&utm_content=airport-west'}, 'status': 'OK'}]"
DES-Disability Management Service,APM Employment Services,ARARAT,VIC,Mental Health,4,"[{'candidates': [], 'status': 'ZERO_RESULTS'}]",
DES-Employment Support Service,APM Employment Services,ARARAT,VIC,All Client Types,4,"[{'candidates': [], 'status': 'ZERO_RESULTS'}]",
DES-Disability Management Service,APM Employment Services,AVOCA,VIC,Mental Health,4,"[{'candidates': [{'geometry': {'location': {'lat': -37.0887694, 'lng': 143.4746994}, 'viewport': {'northeast': {'lat': -37.08745277010728, 'lng': 143.4758669298927}, 'southwest': {'lat': -37.09015242989272, 'lng': 143.4731672701072}}}, 'name': 'APM', 'opening_hours': {'open_now': False}, 'place_id': 'ChIJK67efzwB0WoRfha4XYPIzks'}], 'status': 'OK'}]","[{'html_attributions': [], 'result': {'address_components': [{'long_name': 'Avoca Information Centre', 'short_name': 'Avoca Information Centre', 'types': ['point_of_interest', 'establishment']}, {'long_name': '122', 'short_name': '122', 'types': ['street_number']}, {'long_name': 'High Street', 'short_name': 'High St', 'types': ['route']}, {'long_name': 'Avoca', 'short_name': 'Avoca', 'types': ['locality', 'political']}, {'long_name': 'Pyrenees Shire', 'short_name': 'Pyrenees', 'types': ['administrative_area_level_2', 'political']}, {'long_name': 'Victoria', 'short_name': 'VIC', 'types': ['administrative_area_level_1', 'political']}, {'long_name': 'Australia', 'short_name': 'AU', 'types': ['country', 'political']}, {'long_name': '3467', 'short_name': '3467', 'types': ['postal_code']}], 'formatted_address': 'Avoca Information Centre, 122 High St, Avoca VIC 3467, Australia', 'formatted_phone_number': '(03) 5331 2002', 'url': 'https://maps.google.com/?cid=5462523864585606782', 'website': 'https://apm.net.au/?utm_source=google&utm_medium=organic&utm_campaign=gmb&utm_term=vic&utm_content=avoca'}, 'status': 'OK'}]"
DES-Employment Support Service,APM Employment Services,AVOCA,VIC,All Client Types,4,"[{'candidates': [{'geometry': {'location': {'lat': -37.0887694, 'lng': 143.4746994}, 'viewport': {'northeast': {'lat': -37.08745277010728, 'lng': 143.4758669298927}, 'southwest': {'lat': -37.09015242989272, 'lng': 143.4731672701072}}}, 'name': 'APM', 'opening_hours': {'open_now': False}, 'place_id': 'ChIJK67efzwB0WoRfha4XYPIzks'}], 'status': 'OK'}]","[{'html_attributions': [], 'result': {'address_components': [{'long_name': 'Avoca Information Centre', 'short_name': 'Avoca Information Centre', 'types': ['point_of_interest', 'establishment']}, {'long_name': '122', 'short_name': '122', 'types': ['street_number']}, {'long_name': 'High Street', 'short_name': 'High St', 'types': ['route']}, {'long_name': 'Avoca', 'short_name': 'Avoca', 'types': ['locality', 'political']}, {'long_name': 'Pyrenees Shire', 'short_name': 'Pyrenees', 'types': ['administrative_area_level_2', 'political']}, {'long_name': 'Victoria', 'short_name': 'VIC', 'types': ['administrative_area_level_1', 'political']}, {'long_name': 'Australia', 'short_name': 'AU', 'types': ['country', 'political']}, {'long_name': '3467', 'short_name': '3467', 'types': ['postal_code']}], 'formatted_address': 'Avoca Information Centre, 122 High St, Avoca VIC 3467, Australia', 'formatted_phone_number': '(03) 5331 2002', 'url': 'https://maps.google.com/?cid=5462523864585606782', 'website': 'https://apm.net.au/?utm_source=google&utm_medium=organic&utm_campaign=gmb&utm_term=vic&utm_content=avoca'}, 'status': 'OK'}]"
DES-Disability Management Service,APM Employment Services,BAIRNSDALE,VIC,Mental Health,5,"[{'candidates': [{'geometry': {'location': {'lat': -37.8267867, 'lng': 147.6328198}, 'viewport': {'northeast': {'lat': -37.82551602010727, 'lng': 147.6341967298927}, 'southwest': {'lat': -37.82821567989272, 'lng': 147.6314970701073}}}, 'name': 'APM - ES', 'opening_hours': {'open_now': False}, 'place_id': 'ChIJGyvSeNV_L2sRdq9bdA-UhvM'}], 'status': 'OK'}]","[{'html_attributions': [], 'result': {'address_components': [{'long_name': '68a', 'short_name': '68a', 'types': ['street_number']}, {'long_name': 'Macleod Street', 'short_name': 'Macleod St', 'types': ['route']}, {'long_name': 'Bairnsdale', 'short_name': 'Bairnsdale', 'types': ['locality', 'political']}, {'long_name': 'East Gippsland Shire', 'short_name': 'East Gippsland', 'types': ['administrative_area_level_2', 'political']}, {'long_name': 'Victoria', 'short_name': 'VIC', 'types': ['administrative_area_level_1', 'political']}, {'long_name': 'Australia', 'short_name': 'AU', 'types': ['country', 'political']}, {'long_name': '3875', 'short_name': '3875', 'types': ['postal_code']}], 'formatted_address': '68a Macleod St, Bairnsdale VIC 3875, Australia', 'formatted_phone_number': '(03) 5152 6204', 'url': 'https://maps.google.com/?cid=17547875792193302390', 'website': 'https://apm.net.au/?utm_source=google&utm_medium=organic&utm_campaign=gmb&utm_term=vic&utm_content=bairnsdale-kes'}, 'status': 'OK'}]"
DES-Employment Support Service,APM Employment Services,BAIRNSDALE,VIC,All Client Types,5,"[{'candidates': [{'geometry': {'location': {'lat': -37.8267867, 'lng': 147.6328198}, 'viewport': {'northeast': {'lat': -37.82551602010727, 'lng': 147.6341967298927}, 'southwest': {'lat': -37.82821567989272, 'lng': 147.6314970701073}}}, 'name': 'APM - ES', 'opening_hours': {'open_now': False}, 'place_id': 'ChIJGyvSeNV_L2sRdq9bdA-UhvM'}], 'status': 'OK'}]","[{'html_attributions': [], 'result': {'address_components': [{'long_name': '68a', 'short_name': '68a', 'types': ['street_number']}, {'long_name': 'Macleod Street', 'short_name': 'Macleod St', 'types': ['route']}, {'long_name': 'Bairnsdale', 'short_name': 'Bairnsdale', 'types': ['locality', 'political']}, {'long_name': 'East Gippsland Shire', 'short_name': 'East Gippsland', 'types': ['administrative_area_level_2', 'political']}, {'long_name': 'Victoria', 'short_name': 'VIC', 'types': ['administrative_area_level_1', 'political']}, {'long_name': 'Australia', 'short_name': 'AU', 'types': ['country', 'political']}, {'long_name': '3875', 'short_name': '3875', 'types': ['postal_code']}], 'formatted_address': '68a Macleod St, Bairnsdale VIC 3875, Australia', 'formatted_phone_number': '(03) 5152 6204', 'url': 'https://maps.google.com/?cid=17547875792193302390', 'website': 'https://apm.net.au/?utm_source=google&utm_medium=organic&utm_campaign=gmb&utm_term=vic&utm_content=bairnsdale-kes'}, 'status': 'OK'}]"
DES-Disability Management Service,APM Employment Services,BALLAN,VIC,Mental Health,4,"[{'candidates': [{'geometry': {'location': {'lat': -37.6003627, 'lng': 144.2244564}, 'viewport': {'northeast': {'lat': -37.59890522010728, 'lng': 144.2258060298927}, 'southwest': {'lat': -37.60160487989272, 'lng': 144.2231063701072}}}, 'name': 'APM', 'place_id': 'ChIJfePKduG31moRlme2obGf994'}], 'status': 'OK'}]","[{'html_attributions': [], 'result': {'address_components': [{'long_name': '143', 'short_name': '143', 'types': ['street_number']}, {'long_name': 'Inglis Street', 'short_name': 'Inglis St', 'types': ['route']}, {'long_name': 'Ballan', 'short_name': 'Ballan', 'types': ['locality', 'political']}, {'long_name': 'Moorabool Shire', 'short_name': 'Moorabool', 'types': ['administrative_area_level_2', 'political']}, {'long_name': 'Victoria', 'short_name': 'VIC', 'types': ['administrative_area_level_1', 'political']}, {'long_name': 'Australia', 'short_name': 'AU', 'types': ['country', 'political']}, {'long_name': '3342', 'short_name': '3342', 'types': ['postal_code']}], 'formatted_address': '143 Inglis St, Ballan VIC 3342, Australia', 'formatted_phone_number': '(03) 5331 2002', 'url': 'https://maps.google.com/?cid=16066485780938647446', 'website': 'https://apm.net.au/?utm_source=google&utm_medium=organic&utm_campaign=gmb&utm_term=vic&utm_content=ballan'}, 'status': 'OK'}]"
DES-Employment Support Service,APM Employment Services,BALLAN,VIC,All Client Types,4,"[{'candidates': [{'geometry': {'location': {'lat': -37.6003627, 'lng': 144.2244564}, 'viewport': {'northeast': {'lat': -37.59890522010728, 'lng': 144.2258060298927}, 'southwest': {'lat': -37.60160487989272, 'lng': 144.2231063701072}}}, 'name': 'APM', 'place_id': 'ChIJfePKduG31moRlme2obGf994'}], 'status': 'OK'}]","[{'html_attributions': [], 'result': {'address_components': [{'long_name': '143', 'short_name': '143', 'types': ['street_number']}, {'long_name': 'Inglis Street', 'short_name': 'Inglis St', 'types': ['route']}, {'long_name': 'Ballan', 'short_name': 'Ballan', 'types': ['locality', 'political']}, {'long_name': 'Moorabool Shire', 'short_name': 'Moorabool', 'types': ['administrative_area_level_2', 'political']}, {'long_name': 'Victoria', 'short_name': 'VIC', 'types': ['administrative_area_level_1', 'political']}, {'long_name': 'Australia', 'short_name': 'AU', 'types': ['country', 'political']}, {'long_name': '3342', 'short_name': '3342', 'types': ['postal_code']}], 'formatted_address': '143 Inglis St, Ballan VIC 3342, Australia', 'formatted_phone_number': '(03) 5331 2002', 'url': 'https://maps.google.com/?cid=16066485780938647446', 'website': 'https://apm.net.au/?utm_source=google&utm_medium=organic&utm_campaign=gmb&utm_term=vic&utm_content=ballan'}, 'status': 'OK'}]"
DES-Disability Management Service,APM Employment Services,BALLARAT,VIC,Mental Health,4,"[{'candidates': [{'geometry': {'location': {'lat': -37.5641217, 'lng': 143.8551124}, 'viewport': {'northeast': {'lat': -37.56267137010728, 'lng': 143.8564797298928}, 'southwest': {'lat': -37.56537102989272, 'lng': 143.8537800701073}}}, 'name': 'APM Ballarat', 'opening_hours': {'open_now': False}, 'place_id': 'ChIJ4Tr_jVVE0WoRPbApr0HqI54'}, {'geometry': {'location': {'lat': -37.56334349999999, 'lng': 143.8651438}, 'viewport': {'northeast': {'lat': -37.56201712010728, 'lng': 143.8664476298927}, 'southwest': {'lat': -37.56471677989272, 'lng': 143.8637479701073}}}, 'name': 'APM Employment Services', 'opening_hours': {'open_now': False}, 'place_id': 'ChIJRTiHhf9E0WoRM7lclH5UHL0'}], 'status': 'OK'}]","[{'html_attributions': [], 'result': {'address_components': [{'long_name': '305', 'short_name': '305', 'types': ['street_number']}, {'long_name': 'Dana Street', 'short_name': 'Dana St', 'types': ['route']}, {'long_name': 'Ballarat Central', 'short_name': 'Ballarat Central', 'types': ['locality', 'political']}, {'long_name': 'Ballarat City', 'short_name': 'Ballarat', 'types': ['administrative_area_level_2', 'political']}, {'long_name': 'Victoria', 'short_name': 'VIC', 'types': ['administrative_area_level_1', 'political']}, {'long_name': 'Australia', 'short_name': 'AU', 'types': ['country', 'political']}, {'long_name': '3350', 'short_name': '3350', 'types': ['postal_code']}], 'formatted_address': '305 Dana St, Ballarat Central VIC 3350, Australia', 'formatted_phone_number': '(03) 5331 2002', 'url': 'https://maps.google.com/?cid=11395209050010005565', 'website': 'https://apm.net.au/?utm_source=google&utm_medium=organic&utm_campaign=gmb&utm_term=vic&utm_content=ballarat'}, 'status': 'OK'}]"
DES-Employment Support Service,APM Employment Services,BALLARAT,VIC,All Client Types,4,"[{'candidates': [{'geometry': {'location': {'lat': -37.5641217, 'lng': 143.8551124}, 'viewport': {'northeast': {'lat': -37.56267137010728, 'lng': 143.8564797298928}, 'southwest': {'lat': -37.56537102989272, 'lng': 143.8537800701073}}}, 'name': 'APM Ballarat', 'opening_hours': {'open_now': False}, 'place_id': 'ChIJ4Tr_jVVE0WoRPbApr0HqI54'}, {'geometry': {'location': {'lat': -37.56334349999999, 'lng': 143.8651438}, 'viewport': {'northeast': {'lat': -37.56201712010728, 'lng': 143.8664476298927}, 'southwest': {'lat': -37.56471677989272, 'lng': 143.8637479701073}}}, 'name': 'APM Employment Services', 'opening_hours': {'open_now': False}, 'place_id': 'ChIJRTiHhf9E0WoRM7lclH5UHL0'}], 'status': 'OK'}]","[{'html_attributions': [], 'result': {'address_components': [{'long_name': '305', 'short_name': '305', 'types': ['street_number']}, {'long_name': 'Dana Street', 'short_name': 'Dana St', 'types': ['route']}, {'long_name': 'Ballarat Central', 'short_name': 'Ballarat Central', 'types': ['locality', 'political']}, {'long_name': 'Ballarat City', 'short_name': 'Ballarat', 'types': ['administrative_area_level_2', 'political']}, {'long_name': 'Victoria', 'short_name': 'VIC', 'types': ['administrative_area_level_1', 'political']}, {'long_name': 'Australia', 'short_name': 'AU', 'types': ['country', 'political']}, {'long_name': '3350', 'short_name': '3350', 'types': ['postal_code']}], 'formatted_address': '305 Dana St, Ballarat Central VIC 3350, Australia', 'formatted_phone_number': '(03) 5331 2002', 'url': 'https://maps.google.com/?cid=11395209050010005565', 'website': 'https://apm.net.au/?utm_source=google&utm_medium=organic&utm_campaign=gmb&utm_term=vic&utm_content=ballarat'}, 'status': 'OK'}]"
DES-Employment Support Service,APM Employment Services,BEECHWORTH,VIC,All Client Types,3,"[{'candidates': [{'geometry': {'location': {'lat': -36.3613177, 'lng': 146.6849914}, 'viewport': {'northeast': {'lat': -36.35989192010728, 'lng': 146.6862509798927}, 'southwest': {'lat': -36.36259157989272, 'lng': 146.6835513201073}}}, 'name': 'APM', 'place_id': 'ChIJ1QuDfvmxJmsRSMDPP2lBtBg'}], 'status': 'OK'}]","[{'html_attributions': [], 'result': {'address_components': [{'long_name': '30', 'short_name': '30', 'types': ['street_number']}, {'long_name': 'Ford Street', 'short_name': 'Ford St', 'types': ['route']}, {'long_name': 'Beechworth', 'short_name': 'Beechworth', 'types': ['locality', 'political']}, {'long_name': 'Indigo Shire', 'short_name': 'Indigo', 'types': ['administrative_area_level_2', 'political']}, {'long_name': 'Victoria', 'short_name': 'VIC', 'types': ['administrative_area_level_1', 'political']}, {'long_name': 'Australia', 'short_name': 'AU', 'types': ['country', 'political']}, {'long_name': '3747', 'short_name': '3747', 'types': ['postal_code']}], 'formatted_address': '30 Ford St, Beechworth VIC 3747, Australia', 'formatted_phone_number': '(02) 6021 8740', 'url': 'https://maps.google.com/?cid=1780119673016139848', 'website': 'https://apm.net.au/?utm_source=google&utm_medium=organic&utm_campaign=gmb&utm_term=vic&utm_content=beechworth'}, 'status': 'OK'}]"
DES-Employment Support Service,APM Employment Services,BENALLA,VIC,All Client Types,2,"[{'candidates': [{'geometry': {'location': {'lat': -36.549512, 'lng': 145.9827827}, 'viewport': {'northeast': {'lat': -36.54818717010728, 'lng': 145.9840047798927}, 'southwest': {'lat': -36.55088682989272, 'lng': 145.9813051201073}}}, 'name': 'APM', 'opening_hours': {'open_now': False}, 'place_id': 'ChIJL94XHQMPJ2sRMgpvufm-lj4'}], 'status': 'OK'}]","[{'html_attributions': [], 'result': {'address_components': [{'long_name': '39', 'short_name': '39', 'types': ['street_number']}, {'long_name': 'Nunn Street', 'short_name': 'Nunn St', 'types': ['route']}, {'long_name': 'Benalla', 'short_name': 'Benalla', 'types': ['locality', 'political']}, {'long_name': 'Benalla Rural City', 'short_name': 'Benalla', 'types': ['administrative_area_level_2', 'political']}, {'long_name': 'Victoria', 'short_name': 'VIC', 'types': ['administrative_area_level_1', 'political']}, {'long_name': 'Australia', 'short_name': 'AU', 'types': ['country', 'political']}, {'long_name': '3672', 'short_name': '3672', 'types': ['postal_code']}], 'formatted_address': '39 Nunn St, Benalla VIC 3672, Australia', 'formatted_phone_number': '(03) 5762 5793', 'url': 'https://maps.google.com/?cid=4510002056625326642', 'website': 'https://apm.net.au/?utm_source=google&utm_medium=organic&utm_campaign=gmb&utm_term=vic&utm_content=benalla'}, 'status': 'OK'}]"
DES-Employment Support Service,APM Employment Services,BENDIGO,VIC,All Client Types,4,"[{'candidates': [{'geometry': {'location': {'lat': -36.7599401, 'lng': 144.2823746}, 'viewport': {'northeast': {'lat': -36.75859372010727, 'lng': 144.2836145298927}, 'southwest': {'lat': -36.76129337989272, 'lng': 144.2809148701073}}}, 'name': 'APM - DES', 'opening_hours': {'open_now': False}, 'place_id': 'ChIJ203VFNZZ12oRvQBQn12gfI8'}], 'status': 'OK'}]","[{'html_attributions': [], 'result': {'address_components': [{'long_name': '271', 'short_name': '271', 'types': ['street_number']}, {'long_name': 'Lyttleton Terrace', 'short_name': 'Lyttleton Terrace', 'types': ['route']}, {'long_name': 'Bendigo', 'short_name': 'Bendigo', 'types': ['locality', 'political']}, {'long_name': 'Greater Bendigo City', 'short_name': 'Greater Bendigo', 'types': ['administrative_area_level_2', 'political']}, {'long_name': 'Victoria', 'short_name': 'VIC', 'types': ['administrative_area_level_1', 'political']}, {'long_name': 'Australia', 'short_name': 'AU', 'types': ['country', 'political']}, {'long_name': '3550', 'short_name': '3550', 'types': ['postal_code']}], 'formatted_address': '271 Lyttleton Terrace, Bendigo VIC 3550, Australia', 'formatted_phone_number': '(03) 5441 8515', 'url': 'https://maps.google.com/?cid=10339315168501039293', 'website': 'https://apm.net.au/?utm_source=google&utm_medium=organic&utm_campaign=gmb&utm_term=vic&utm_content=bendigo'}, 'status': 'OK'}]"
DES-Employment Support Service,APM Employment Services,BORONIA,VIC,All Client Types,5,"[{'candidates': [{'geometry': {'location': {'lat': -37.862599, 'lng': 145.2809158}, 'viewport': {'northeast': {'lat': -37.86104867010727, 'lng': 145.2823024798927}, 'southwest': {'lat': -37.86374832989272, 'lng': 145.2796028201073}}}, 'name': 'APM', 'opening_hours': {'open_now': False}, 'place_id': 'ChIJD5lsNH071moRUb9UDo2hiOQ'}], 'status': 'OK'}]","[{'html_attributions': [], 'result': {'address_components': [{'long_name': 'Suite 1A', 'short_name': 'Suite 1A', 'types': ['subpremise']}, {'long_name': '168', 'short_name': '168', 'types': ['street_number']}, {'long_name': 'Boronia Road', 'short_name': 'Boronia Rd', 'types': ['route']}, {'long_name': 'Boronia', 'short_name': 'Boronia', 'types': ['locality', 'political']}, {'long_name': 'City of Knox', 'short_name': 'Knox', 'types': ['administrative_area_level_2', 'political']}, {'long_name': 'Victoria', 'short_name': 'VIC', 'types': ['administrative_area_level_1', 'political']}, {'long_name': 'Australia', 'short_name': 'AU', 'types': ['country', 'political']}, {'long_name': '3155', 'short_name': '3155', 'types': ['postal_code']}], 'formatted_address': 'Suite 1A/168 Boronia Rd, Boronia VIC 3155, Australia', 'formatted_phone_number': '(03) 9762 9980', 'url': 'https://maps.google.com/?cid=16467589664683114321', 'website': 'https://apm.net.au/?utm_source=google&utm_medium=organic&utm_campaign=gmb&utm_term=vic&utm_content=boronia'}, 'status': 'OK'}]"
DES-Employment Support Service,APM Employment Services,BOX HILL,VIC,All Client Types,5,"[{'candidates': [{'geometry': {'location': {'lat': -37.8209157, 'lng': 145.1262657}, 'viewport': {'northeast': {'lat': -37.81950682010729, 'lng': 145.1276264798927}, 'southwest': {'lat': -37.82220647989273, 'lng': 145.1249268201073}}}, 'name': 'APM', 'opening_hours': {'open_now': False}, 'place_id': 'ChIJcdFloetB1moRzPGAo-j-8nE'}, {'geometry': {'location': {'lat': -37.832293, 'lng': 145.058334}, 'viewport': {'northeast': {'lat': -37.83103972010728, 'lng': 145.0595501798927}, 'southwest': {'lat': -37.83373937989273, 'lng': 145.0568505201073}}}, 'name': 'APM', 'opening_hours': {'open_now': False}, 'place_id': 'ChIJyc5iU2ZB1moRzS4wMIp0QQg'}], 'status': 'OK'}]","[{'html_attributions': [], 'result': {'address_components': [{'long_name': '9', 'short_name': '9', 'types': ['subpremise']}, {'long_name': '30-31', 'short_name': '30-31', 'types': ['street_number']}, {'long_name': 'Ellingworth Parade', 'short_name': 'Ellingworth Parade', 'types': ['route']}, {'long_name': 'Box Hill', 'short_name': 'Box Hill', 'types': ['locality', 'political']}, {'long_name': 'Whitehorse City', 'short_name': 'Whitehorse', 'types': ['administrative_area_level_2', 'political']}, {'long_name': 'Victoria', 'short_name': 'VIC', 'types': ['administrative_area_level_1', 'political']}, {'long_name': 'Australia', 'short_name': 'AU', 'types': ['country', 'political']}, {'long_name': '3128', 'short_name': '3128', 'types': ['postal_code']}], 'formatted_address': '9/30-31 Ellingworth Parade, Box Hill VIC 3128, Australia', 'formatted_phone_number': '(03) 9898 2447', 'url': 'https://maps.google.com/?cid=8210905345778840012', 'website': 'https://apm.net.au/?utm_source=google&utm_medium=organic&utm_campaign=gmb&utm_term=vic&utm_content=box-hill'}, 'status': 'OK'}]"
DES-Employment Support Service,APM Employment Services,BROADFORD,VIC,All Client Types,3,"[{'candidates': [{'geometry': {'location': {'lat': -37.20514430000001, 'lng': 145.0496264}, 'viewport': {'northeast': {'lat': -37.20364792010729, 'lng': 145.0508432298927}, 'southwest': {'lat': -37.20634757989273, 'lng': 145.0481435701073}}}, 'name': 'APM', 'place_id': 'ChIJAcXKQM-V12oRYKBnnQ9hf90'}], 'status': 'OK'}]","[{'html_attributions': [], 'result': {'address_components': [{'long_name': 'Nexus Primary Health', 'short_name': 'Nexus Primary Health', 'types': ['point_of_interest', 'establishment']}, {'long_name': '72', 'short_name': '72', 'types': ['street_number']}, {'long_name': 'Ferguson Street', 'short_name': 'Ferguson St', 'types': ['route']}, {'long_name': 'Broadford', 'short_name': 'Broadford', 'types': ['locality', 'political']}, {'long_name': 'Mitchell Shire', 'short_name': 'Mitchell', 'types': ['administrative_area_level_2', 'political']}, {'long_name': 'Victoria', 'short_name': 'VIC', 'types': ['administrative_area_level_1', 'political']}, {'long_name': 'Australia', 'short_name': 'AU', 'types': ['country', 'political']}, {'long_name': '3658', 'short_name': '3658', 'types': ['postal_code']}], 'formatted_address': 'Nexus Primary Health, 72 Ferguson St, Broadford VIC 3658, Australia', 'formatted_phone_number': '(03) 5792 1074', 'url': 'https://maps.google.com/?cid=15960582324117545056', 'website': 'https://apm.net.au/?utm_source=google&utm_medium=organic&utm_campaign=gmb&utm_term=vic&utm_content=broadford'}, 'status': 'OK'}]"
DES-Employment Support Service,APM Employment Services,BROADMEADOWS,VIC,All Client Types,2,"[{'candidates': [{'geometry': {'location': {'lat': -37.68289, 'lng': 144.9194202}, 'viewport': {'northeast': {'lat': -37.68147552010728, 'lng': 144.9206419798927}, 'southwest': {'lat': -37.68417517989272, 'lng': 144.9179423201072}}}, 'name': 'APM', 'opening_hours': {'open_now': False}, 'place_id': 'ChIJ4w-vsQlb1moRXH-ocKFN7xE'}], 'status': 'OK'}]","[{'html_attributions': [], 'result': {'address_components': [{'long_name': 'level 3', 'short_name': 'level 3', 'types': ['subpremise']}, {'long_name': 'C/- Wesley Employment Services', 'short_name': 'C/- Wesley Employment Services', 'types': ['point_of_interest', 'establishment']}, {'long_name': '1100', 'short_name': '1100', 'types': ['street_number']}, {'long_name': 'Pascoe Vale Road', 'short_name': 'Pascoe Vale Rd', 'types': ['route']}, {'long_name': 'Broadmeadows', 'short_name': 'Broadmeadows', 'types': ['locality', 'political']}, {'long_name': 'City of Hume', 'short_name': 'Hume', 'types': ['administrative_area_level_2', 'political']}, {'long_name': 'Victoria', 'short_name': 'VIC', 'types': ['administrative_area_level_1', 'political']}, {'long_name': 'Australia', 'short_name': 'AU', 'types': ['country', 'political']}, {'long_name': '3047', 'short_name': '3047', 'types': ['postal_code']}], 'formatted_address': 'C/- Wesley Employment Services, level 3/1100 Pascoe Vale Rd, Broadmeadows VIC 3047, Australia', 'formatted_phone_number': '(03) 8643 6500', 'url': 'https://maps.google.com/?cid=1292336973853785948', 'website': 'https://apm.net.au/'}, 'status': 'OK'}]"
DES-Employment Support Service,APM Employment Services,BRUNSWICK,VIC,All Client Types,3,"[{'candidates': [{'geometry': {'location': {'lat': -37.76359470000001, 'lng': 144.9629506}, 'viewport': {'northeast': {'lat': -37.76223242010727, 'lng': 144.9641838798928}, 'southwest': {'lat': -37.76493207989272, 'lng': 144.9614842201073}}}, 'name': 'APM', 'opening_hours': {'open_now': False}, 'place_id': 'ChIJodTYoaxD1moR_GHWNECqRmY'}], 'status': 'OK'}]","[{'html_attributions': [], 'result': {'address_components': [{'long_name': '602', 'short_name': '602', 'types': ['street_number']}, {'long_name': 'Sydney Road', 'short_name': 'Sydney Rd', 'types': ['route']}, {'long_name': 'Brunswick', 'short_name': 'Brunswick', 'types': ['locality', 'political']}, {'long_name': 'Moreland City', 'short_name': 'Moreland', 'types': ['administrative_area_level_2', 'political']}, {'long_name': 'Victoria', 'short_name': 'VIC', 'types': ['administrative_area_level_1', 'political']}, {'long_name': 'Australia', 'short_name': 'AU', 'types': ['country', 'political']}, {'long_name': '3056', 'short_name': '3056', 'types': ['postal_code']}], 'formatted_address': '602 Sydney Rd, Brunswick VIC 3056, Australia', 'formatted_phone_number': '(03) 9388 2016', 'url': 'https://maps.google.com/?cid=7369765032979489276', 'website': 'https://apm.net.au/?utm_source=google&utm_medium=organic&utm_campaign=gmb&utm_term=vic&utm_content=brunswick'}, 'status': 'OK'}]"
DES-Employment Support Service,APM Employment Services,CAMBERWELL,VIC,All Client Types,1,"[{'candidates': [{'geometry': {'location': {'lat': -37.832293, 'lng': 145.058334}, 'viewport': {'northeast': {'lat': -37.83103972010728, 'lng': 145.0595501798927}, 'southwest': {'lat': -37.83373937989273, 'lng': 145.0568505201073}}}, 'name': 'APM', 'opening_hours': {'open_now': False}, 'place_id': 'ChIJyc5iU2ZB1moRzS4wMIp0QQg'}], 'status': 'OK'}]","[{'html_attributions': [], 'result': {'address_components': [{'long_name': 'Ground Floor, G.02', 'short_name': 'Ground Floor, G.02', 'types': ['subpremise']}, {'long_name': '277', 'short_name': '277', 'types': ['street_number']}, {'long_name': 'Camberwell Road', 'short_name': 'Camberwell Rd', 'types': ['route']}, {'long_name': 'Camberwell', 'short_name': 'Camberwell', 'types': ['locality', 'political']}, {'long_name': 'Boroondara City', 'short_name': 'Boroondara', 'types': ['administrative_area_level_2', 'political']}, {'long_name': 'Victoria', 'short_name': 'VIC', 'types': ['administrative_area_level_1', 'political']}, {'long_name': 'Australia', 'short_name': 'AU', 'types': ['country', 'political']}, {'long_name': '3124', 'short_name': '3124', 'types': ['postal_code']}], 'formatted_address': 'Ground Floor, G.02/277 Camberwell Rd, Camberwell VIC 3124, Australia', 'formatted_phone_number': '(03) 9882 8925', 'url': 'https://maps.google.com/?cid=594884762652389069', 'website': 'https://apm.net.au/?utm_source=google&utm_medium=organic&utm_campaign=gmb&utm_term=vic&utm_content=camberwell'}, 'status': 'OK'}]"
DES-Employment Support Service,APM Employment Services,CASTLEMAINE,VIC,All Client Types,3,"[{'candidates': [{'geometry': {'location': {'lat': -37.0631479, 'lng': 144.2189693}, 'viewport': {'northeast': {'lat': -37.06195317010727, 'lng': 144.2202940298927}, 'southwest': {'lat': -37.06465282989272, 'lng': 144.2175943701073}}}, 'name': 'APM', 'place_id': 'ChIJ67baaVsx12oRdoQPVKnkK3A'}], 'status': 'OK'}]","[{'html_attributions': [], 'result': {'address_components': [{'long_name': '65', 'short_name': '65', 'types': ['street_number']}, {'long_name': 'Templeton Street', 'short_name': 'Templeton St', 'types': ['route']}, {'long_name': 'Castlemaine', 'short_name': 'Castlemaine', 'types': ['locality', 'political']}, {'long_name': 'Mount Alexander Shire', 'short_name': 'Mount Alexander', 'types': ['administrative_area_level_2', 'political']}, {'long_name': 'Victoria', 'short_name': 'VIC', 'types': ['administrative_area_level_1', 'political']}, {'long_name': 'Australia', 'short_name': 'AU', 'types': ['country', 'political']}, {'long_name': '3450', 'short_name': '3450', 'types': ['postal_code']}], 'formatted_address': '65 Templeton St, Castlemaine VIC 3450, Australia', 'formatted_phone_number': '(03) 5441 8515', 'url': 'https://maps.google.com/?cid=8082805372157396086', 'website': 'https://apm.net.au/?utm_source=google&utm_medium=organic&utm_campaign=gmb&utm_term=vic&utm_content=castlemaine'}, 'status': 'OK'}]"
DES-Employment Support Service,APM Employment Services,CHELTENHAM,VIC,All Client Types,3,"[{'candidates': [{'geometry': {'location': {'lat': -37.9671041, 'lng': 145.0579082}, 'viewport': {'northeast': {'lat': -37.96583487010728, 'lng': 145.0592399798927}, 'southwest': {'lat': -37.96853452989272, 'lng': 145.0565403201072}}}, 'name': 'APM', 'opening_hours': {'open_now': False}, 'place_id': 'ChIJIQq_D5xt1moRIKdAmPRY-oo'}], 'status': 'OK'}]","[{'html_attributions': [], 'result': {'address_components': [{'long_name': 'Suite G01', 'short_name': 'Suite G01', 'types': ['subpremise']}, {'long_name': '43', 'short_name': '43', 'types': ['street_number']}, {'long_name': 'Station Road', 'short_name': 'Station Rd', 'types': ['route']}, {'long_name': 'Cheltenham', 'short_name': 'Cheltenham', 'types': ['locality', 'political']}, {'long_name': 'Kingston City', 'short_name': 'Kingston', 'types': ['administrative_area_level_2', 'political']}, {'long_name': 'Victoria', 'short_name': 'VIC', 'types': ['administrative_area_level_1', 'political']}, {'long_name': 'Australia', 'short_name': 'AU', 'types': ['country', 'political']}, {'long_name': '3192', 'short_name': '3192', 'types': ['postal_code']}], 'formatted_address': 'Suite G01/43 Station Rd, Cheltenham VIC 3192, Australia', 'formatted_phone_number': '(03) 9585 8264', 'url': 'https://maps.google.com/?cid=10014414528961357600', 'website': 'https://apm.net.au/?utm_source=google&utm_medium=organic&utm_campaign=gmb&utm_term=vic&utm_content=cheltenham'}, 'status': 'OK'}]"
DES-Employment Support Service,APM Employment Services,CHURCHILL,VIC,All Client Types,3,"[{'candidates': [], 'status': 'ZERO_RESULTS'}]",
DES-Employment Support Service,APM Employment Services,COLAC,VIC,All Client Types,5,"[{'candidates': [{'geometry': {'location': {'lat': -38.33997129999999, 'lng': 143.5852072}, 'viewport': {'northeast': {'lat': -38.33853312010727, 'lng': 143.5865531298927}, 'southwest': {'lat': -38.34123277989272, 'lng': 143.5838534701072}}}, 'name': 'APM', 'opening_hours': {'open_now': False}, 'place_id': 'ChIJJwFlYN8P02oR6VY1OQHvYFk'}], 'status': 'OK'}]","[{'html_attributions': [], 'result': {'address_components': [{'long_name': '166', 'short_name': '166', 'types': ['street_number']}, {'long_name': 'Murray Street', 'short_name': 'Murray St', 'types': ['route']}, {'long_name': 'Colac', 'short_name': 'Colac', 'types': ['locality', 'political']}, {'long_name': 'Colac Otway Shire', 'short_name': 'Colac Otway', 'types': ['administrative_area_level_2', 'political']}, {'long_name': 'Victoria', 'short_name': 'VIC', 'types': ['administrative_area_level_1', 'political']}, {'long_name': 'Australia', 'short_name': 'AU', 'types': ['country', 'political']}, {'long_name': '3250', 'short_name': '3250', 'types': ['postal_code']}], 'formatted_address': '166 Murray St, Colac VIC 3250, Australia', 'formatted_phone_number': '(03) 5231 3378', 'url': 'https://maps.google.com/?cid=6440410255673612009', 'website': 'https://apm.net.au/?utm_source=google&utm_medium=organic&utm_campaign=gmb&utm_term=vic&utm_content=colac'}, 'status': 'OK'}]"
DES-Disability Management Service,APM Employment Services,CORIO,VIC,Mental Health,2,"[{'candidates': [{'geometry': {'location': {'lat': -38.0744338, 'lng': 144.3595758}, 'viewport': {'northeast': {'lat': -38.07300427010728, 'lng': 144.3609404798927}, 'southwest': {'lat': -38.07570392989273, 'lng': 144.3582408201073}}}, 'name': 'APM', 'opening_hours': {'open_now': False}, 'place_id': 'ChIJ9QBacToX1GoR-MnSXLvbxXE'}], 'status': 'OK'}]","[{'html_attributions': [], 'result': {'address_components': [{'long_name': '1B', 'short_name': '1B', 'types': ['subpremise']}, {'long_name': '83E', 'short_name': '83E', 'types': ['street_number']}, {'long_name': 'Purnell Road', 'short_name': 'Purnell Rd', 'types': ['route']}, {'long_name': 'Corio', 'short_name': 'Corio', 'types': ['locality', 'political']}, {'long_name': 'Greater Geelong City', 'short_name': 'Greater Geelong', 'types': ['administrative_area_level_2', 'political']}, {'long_name': 'Victoria', 'short_name': 'VIC', 'types': ['administrative_area_level_1', 'political']}, {'long_name': 'Australia', 'short_name': 'AU', 'types': ['country', 'political']}, {'long_name': '3214', 'short_name': '3214', 'types': ['postal_code']}], 'formatted_address': '1B/83E Purnell Rd, Corio VIC 3214, Australia', 'formatted_phone_number': '(03) 5275 0879', 'url': 'https://maps.google.com/?cid=8198200294460541432', 'website': 'https://apm.net.au/?utm_source=google&utm_medium=organic&utm_campaign=gmb&utm_term=vic&utm_content=corio'}, 'status': 'OK'}]"
DES-Employment Support Service,APM Employment Services,CORIO,VIC,All Client Types,2,"[{'candidates': [{'geometry': {'location': {'lat': -38.0744338, 'lng': 144.3595758}, 'viewport': {'northeast': {'lat': -38.07300427010728, 'lng': 144.3609404798927}, 'southwest': {'lat': -38.07570392989273, 'lng': 144.3582408201073}}}, 'name': 'APM', 'opening_hours': {'open_now': False}, 'place_id': 'ChIJ9QBacToX1GoR-MnSXLvbxXE'}], 'status': 'OK'}]","[{'html_attributions': [], 'result': {'address_components': [{'long_name': '1B', 'short_name': '1B', 'types': ['subpremise']}, {'long_name': '83E', 'short_name': '83E', 'types': ['street_number']}, {'long_name': 'Purnell Road', 'short_name': 'Purnell Rd', 'types': ['route']}, {'long_name': 'Corio', 'short_name': 'Corio', 'types': ['locality', 'political']}, {'long_name': 'Greater Geelong City', 'short_name': 'Greater Geelong', 'types': ['administrative_area_level_2', 'political']}, {'long_name': 'Victoria', 'short_name': 'VIC', 'types': ['administrative_area_level_1', 'political']}, {'long_name': 'Australia', 'short_name': 'AU', 'types': ['country', 'political']}, {'long_name': '3214', 'short_name': '3214', 'types': ['postal_code']}], 'formatted_address': '1B/83E Purnell Rd, Corio VIC 3214, Australia', 'formatted_phone_number': '(03) 5275 0879', 'url': 'https://maps.google.com/?cid=8198200294460541432', 'website': 'https://apm.net.au/?utm_source=google&utm_medium=organic&utm_campaign=gmb&utm_term=vic&utm_content=corio'}, 'status': 'OK'}]"
DES-Employment Support Service,APM Employment Services,CORRYONG,VIC,All Client Types,3,"[{'candidates': [{'geometry': {'location': {'lat': -36.1961088, 'lng': 147.9030678}, 'viewport': {'northeast': {'lat': -36.19486447010727, 'lng': 147.9044821798927}, 'southwest': {'lat': -36.19756412989271, 'lng': 147.9017825201073}}}, 'name': 'APM', 'place_id': 'ChIJ1dwD9wkRI2sRISAhNYMpvKE'}], 'status': 'OK'}]","[{'html_attributions': [], 'result': {'address_components': [{'long_name': '76', 'short_name': '76', 'types': ['street_number']}, {'long_name': 'Hanson Street', 'short_name': 'Hanson St', 'types': ['route']}, {'long_name': 'Corryong', 'short_name': 'Corryong', 'types': ['locality', 'political']}, {'long_name': 'Towong Shire', 'short_name': 'Towong', 'types': ['administrative_area_level_2', 'political']}, {'long_name': 'Victoria', 'short_name': 'VIC', 'types': ['administrative_area_level_1', 'political']}, {'long_name': 'Australia', 'short_name': 'AU', 'types': ['country', 'political']}, {'long_name': '3707', 'short_name': '3707', 'types': ['postal_code']}], 'formatted_address': '76 Hanson St, Corryong VIC 3707, Australia', 'formatted_phone_number': '(02) 6021 8740', 'url': 'https://maps.google.com/?cid=11654235579236818977', 'website': 'https://apm.net.au/?utm_source=google&utm_medium=organic&utm_campaign=gmb&utm_term=vic&utm_content=corryong'}, 'status': 'OK'}]"
DES-Employment Support Service,APM Employment Services,COWES,VIC,All Client Types,3,"[{'candidates': [{'geometry': {'location': {'lat': -38.4520662, 'lng': 145.2406211}, 'viewport': {'northeast': {'lat': -38.45085397010727, 'lng': 145.2419709798928}, 'southwest': {'lat': -38.45355362989272, 'lng': 145.2392713201073}}}, 'name': 'APM', 'place_id': 'ChIJXQr_653t1WoRh8-77-rQjzY'}, {'geometry': {'location': {'lat': -38.14478100000001, 'lng': 145.123553}, 'viewport': {'northeast': {'lat': -38.14351127010728, 'lng': 145.1249614798927}, 'southwest': {'lat': -38.14621092989272, 'lng': 145.1222618201073}}}, 'name': 'APM', 'opening_hours': {'open_now': False}, 'place_id': 'ChIJRy7YmrZ11moRaAO2i6IbutA'}], 'status': 'OK'}]","[{'html_attributions': [], 'result': {'address_components': [{'long_name': '56-58', 'short_name': '56-58', 'types': ['street_number']}, {'long_name': 'Church Street', 'short_name': 'Church St', 'types': ['route']}, {'long_name': 'Cowes', 'short_name': 'Cowes', 'types': ['locality', 'political']}, {'long_name': 'Bass Coast Shire', 'short_name': 'Bass Coast', 'types': ['administrative_area_level_2', 'political']}, {'long_name': 'Victoria', 'short_name': 'VIC', 'types': ['administrative_area_level_1', 'political']}, {'long_name': 'Australia', 'short_name': 'AU', 'types': ['country', 'political']}, {'long_name': '3922', 'short_name': '3922', 'types': ['postal_code']}], 'formatted_address': 'Phillip Island Community & Learning Centre, 56-58 Church St, Cowes VIC 3922, Australia', 'formatted_phone_number': '1300 366 047', 'url': 'https://maps.google.com/?cid=3931590707180720007', 'website': 'https://apm.net.au/?utm_source=google&utm_medium=organic&utm_campaign=gmb&utm_term=vic&utm_content=cowes'}, 'status': 'OK'}]"
DES-Employment Support Service,APM Employment Services,CRANBOURNE,VIC,All Client Types,4,"[{'candidates': [{'geometry': {'location': {'lat': -38.1119277, 'lng': 145.2822551}, 'viewport': {'northeast': {'lat': -38.11061977010728, 'lng': 145.2839252798927}, 'southwest': {'lat': -38.11331942989273, 'lng': 145.2812256201073}}}, 'name': 'APM', 'opening_hours': {'open_now': False}, 'place_id': 'ChIJz5sKTysP1moRjh1iTEnBr8M'}], 'status': 'OK'}]","[{'html_attributions': [], 'result': {'address_components': [{'long_name': 'Unit 13', 'short_name': 'Unit 13', 'types': ['subpremise']}, {'long_name': '33-39', 'short_name': '33-39', 'types': ['street_number']}, {'long_name': 'High Street', 'short_name': 'High St', 'types': ['route']}, {'long_name': 'Cranbourne', 'short_name': 'Cranbourne', 'types': ['locality', 'political']}, {'long_name': 'City of Casey', 'short_name': 'Casey', 'types': ['administrative_area_level_2', 'political']}, {'long_name': 'Victoria', 'short_name': 'VIC', 'types': ['administrative_area_level_1', 'political']}, {'long_name': 'Australia', 'short_name': 'AU', 'types': ['country', 'political']}, {'long_name': '3977', 'short_name': '3977', 'types': ['postal_code']}], 'formatted_address': 'Unit 13/33-39 High St, Cranbourne VIC 3977, Australia', 'formatted_phone_number': '(03) 5996 6759', 'url': 'https://maps.google.com/?cid=14100701478878584206', 'website': 'https://apm.net.au/?utm_source=google&utm_medium=organic&utm_campaign=gmb&utm_term=vic&utm_content=cranbourne'}, 'status': 'OK'}]"
DES-Employment Support Service,APM Employment Services,CUDGEWA,VIC,All Client Types,3,"[{'candidates': [{'geometry': {'location': {'lat': -36.1846603, 'lng': 147.7786828}, 'viewport': {'northeast': {'lat': -36.18337162010728, 'lng': 147.7801073298927}, 'southwest': {'lat': -36.18607127989272, 'lng': 147.7774076701072}}}, 'name': 'APM', 'place_id': 'ChIJzTXw5VoPI2sR909YWBsHhHk'}], 'status': 'OK'}]","[{'html_attributions': [], 'result': {'address_components': [{'long_name': 'Mechanics Hall', 'short_name': 'Mechanics Hall', 'types': ['point_of_interest', 'establishment']}, {'long_name': '195', 'short_name': '195', 'types': ['street_number']}, {'long_name': 'Main Street', 'short_name': 'Main St', 'types': ['route']}, {'long_name': 'Cudgewa', 'short_name': 'Cudgewa', 'types': ['locality', 'political']}, {'long_name': 'Towong Shire', 'short_name': 'Towong', 'types': ['administrative_area_level_2', 'political']}, {'long_name': 'Victoria', 'short_name': 'VIC', 'types': ['administrative_area_level_1', 'political']}, {'long_name': 'Australia', 'short_name': 'AU', 'types': ['country', 'political']}, {'long_name': '3705', 'short_name': '3705', 'types': ['postal_code']}], 'formatted_address': 'Mechanics Hall, 195 Main St, Cudgewa VIC 3705, Australia', 'formatted_phone_number': '(02) 6021 8740', 'url': 'https://maps.google.com/?cid=8756131389542780919', 'website': 'https://apm.net.au/?utm_source=google&utm_medium=organic&utm_campaign=gmb&utm_term=vic&utm_content=cudgewa'}, 'status': 'OK'}]"
DES-Employment Support Service,APM Employment Services,DANDENONG,VIC,All Client Types,3,"[{'candidates': [{'geometry': {'location': {'lat': -37.9886302, 'lng': 145.2110174}, 'viewport': {'northeast': {'lat': -37.98712707010727, 'lng': 145.2123532798927}, 'southwest': {'lat': -37.98982672989272, 'lng': 145.2096536201072}}}, 'name': 'APM', 'opening_hours': {'open_now': False}, 'place_id': 'ChIJp-io9UcV1moRGBbQRlwGlU8'}], 'status': 'OK'}]","[{'html_attributions': [], 'result': {'address_components': [{'long_name': '2', 'short_name': '2', 'types': ['street_number']}, {'long_name': 'Walker Street', 'short_name': 'Walker St', 'types': ['route']}, {'long_name': 'Dandenong', 'short_name': 'Dandenong', 'types': ['locality', 'political']}, {'long_name': 'Greater Dandenong City', 'short_name': 'Greater Dandenong', 'types': ['administrative_area_level_2', 'political']}, {'long_name': 'Victoria', 'short_name': 'VIC', 'types': ['administrative_area_level_1', 'political']}, {'long_name': 'Australia', 'short_name': 'AU', 'types': ['country', 'political']}, {'long_name': '3175', 'short_name': '3175', 'types': ['postal_code']}], 'formatted_address': '2 Walker St, Dandenong VIC 3175, Australia', 'formatted_phone_number': '(03) 9792 0470', 'url': 'https://maps.google.com/?cid=5734496693920994840', 'website': 'https://apm.net.au/?utm_source=google&utm_medium=organic&utm_campaign=gmb&utm_term=vic&utm_content=dandenong'}, 'status': 'OK'}]"
DES-Disability Management Service,APM Employment Services,DAYLESFORD,VIC,Mental Health,New Site,"[{'candidates': [{'geometry': {'location': {'lat': -37.341932, 'lng': 144.146116}, 'viewport': {'northeast': {'lat': -37.34054732010728, 'lng': 144.1472094798927}, 'southwest': {'lat': -37.34324697989273, 'lng': 144.1445098201073}}}, 'name': 'APM', 'opening_hours': {'open_now': False}, 'place_id': 'ChIJZxFsIlfT1moRCs6KCK_I_70'}], 'status': 'OK'}]","[{'html_attributions': [], 'result': {'address_components': [{'long_name': 'Neighbourhood Centre', 'short_name': 'Neighbourhood Centre', 'types': ['point_of_interest', 'establishment']}, {'long_name': '13', 'short_name': '13', 'types': ['street_number']}, {'long_name': 'Camp Street', 'short_name': 'Camp St', 'types': ['route']}, {'long_name': 'Daylesford', 'short_name': 'Daylesford', 'types': ['locality', 'political']}, {'long_name': 'Hepburn Shire', 'short_name': 'Hepburn', 'types': ['administrative_area_level_2', 'political']}, {'long_name': 'Victoria', 'short_name': 'VIC', 'types': ['administrative_area_level_1', 'political']}, {'long_name': 'Australia', 'short_name': 'AU', 'types': ['country', 'political']}, {'long_name': '3460', 'short_name': '3460', 'types': ['postal_code']}], 'formatted_address': 'Neighbourhood Centre, 13 Camp St, Daylesford VIC 3460, Australia', 'formatted_phone_number': '(03) 5331 2002', 'url': 'https://maps.google.com/?cid=13690882046317743626', 'website': 'https://apm.net.au/?utm_source=google&utm_medium=organic&utm_campaign=gmb&utm_term=vic&utm_content=daylesford'}, 'status': 'OK'}]"
DES-Employment Support Service,APM Employment Services,DAYLESFORD,VIC,All Client Types,4,"[{'candidates': [{'geometry': {'location': {'lat': -37.341932, 'lng': 144.146116}, 'viewport': {'northeast': {'lat': -37.34054732010728, 'lng': 144.1472094798927}, 'southwest': {'lat': -37.34324697989273, 'lng': 144.1445098201073}}}, 'name': 'APM', 'opening_hours': {'open_now': False}, 'place_id': 'ChIJZxFsIlfT1moRCs6KCK_I_70'}], 'status': 'OK'}]","[{'html_attributions': [], 'result': {'address_components': [{'long_name': 'Neighbourhood Centre', 'short_name': 'Neighbourhood Centre', 'types': ['point_of_interest', 'establishment']}, {'long_name': '13', 'short_name': '13', 'types': ['street_number']}, {'long_name': 'Camp Street', 'short_name': 'Camp St', 'types': ['route']}, {'long_name': 'Daylesford', 'short_name': 'Daylesford', 'types': ['locality', 'political']}, {'long_name': 'Hepburn Shire', 'short_name': 'Hepburn', 'types': ['administrative_area_level_2', 'political']}, {'long_name': 'Victoria', 'short_name': 'VIC', 'types': ['administrative_area_level_1', 'political']}, {'long_name': 'Australia', 'short_name': 'AU', 'types': ['country', 'political']}, {'long_name': '3460', 'short_name': '3460', 'types': ['postal_code']}], 'formatted_address': 'Neighbourhood Centre, 13 Camp St, Daylesford VIC 3460, Australia', 'formatted_phone_number': '(03) 5331 2002', 'url': 'https://maps.google.com/?cid=13690882046317743626', 'website': 'https://apm.net.au/?utm_source=google&utm_medium=organic&utm_campaign=gmb&utm_term=vic&utm_content=daylesford'}, 'status': 'OK'}]"
DES-Employment Support Service,APM Employment Services,DROUIN,VIC,All Client Types,3,"[{'candidates': [{'geometry': {'location': {'lat': -38.1352806, 'lng': 145.859718}, 'viewport': {'northeast': {'lat': -38.13402162010728, 'lng': 145.8611395298927}, 'southwest': {'lat': -38.13672127989272, 'lng': 145.8584398701073}}}, 'name': 'APM', 'place_id': 'ChIJO8-9IQqVKWsRkVwZmyQoiRk'}], 'status': 'OK'}]","[{'html_attributions': [], 'result': {'address_components': [{'long_name': 'Customer Service Centre', 'short_name': 'Customer Service Centre', 'types': ['point_of_interest', 'establishment']}, {'long_name': '33', 'short_name': '33', 'types': ['street_number']}, {'long_name': 'Young Street', 'short_name': 'Young St', 'types': ['route']}, {'long_name': 'Drouin', 'short_name': 'Drouin', 'types': ['locality', 'political']}, {'long_name': 'Baw Baw Shire', 'short_name': 'Baw Baw', 'types': ['administrative_area_level_2', 'political']}, {'long_name': 'Victoria', 'short_name': 'VIC', 'types': ['administrative_area_level_1', 'political']}, {'long_name': 'Australia', 'short_name': 'AU', 'types': ['country', 'political']}, {'long_name': '3818', 'short_name': '3818', 'types': ['postal_code']}], 'formatted_address': 'Customer Service Centre, 33 Young St, Drouin VIC 3818, Australia', 'formatted_phone_number': '1300 366 047', 'url': 'https://maps.google.com/?cid=1840046060443622545', 'website': 'https://apm.net.au/?utm_source=google&utm_medium=organic&utm_campaign=gmb&utm_term=vic&utm_content=drouin'}, 'status': 'OK'}]"
DES-Employment Support Service,APM Employment Services,EAST GEELONG,VIC,All Client Types,5,"[{'candidates': [{'geometry': {'location': {'lat': -38.1650202, 'lng': 144.3804561}, 'viewport': {'northeast': {'lat': -38.16362967010728, 'lng': 144.3818780298927}, 'southwest': {'lat': -38.16632932989273, 'lng': 144.3791783701073}}}, 'name': 'APM', 'opening_hours': {'open_now': False}, 'place_id': 'ChIJm8YXhDoU1GoReu6JQ0bOAkU'}, {'geometry': {'location': {'lat': -38.1464667, 'lng': 144.361385}, 'viewport': {'northeast': {'lat': -38.14508627010728, 'lng': 144.3626166798927}, 'southwest': {'lat': -38.14778592989273, 'lng': 144.3599170201073}}}, 'name': 'APM Geelong', 'opening_hours': {'open_now': False}, 'place_id': 'ChIJ95GnD5oV1GoRFOSVswRPUnU'}], 'status': 'OK'}]","[{'html_attributions': [], 'result': {'address_components': [{'long_name': 'Shop 7', 'short_name': 'Shop 7', 'types': ['subpremise']}, {'long_name': '136', 'short_name': '136', 'types': ['street_number']}, {'long_name': 'Ormond Road', 'short_name': 'Ormond Rd', 'types': ['route']}, {'long_name': 'East Geelong', 'short_name': 'East Geelong', 'types': ['locality', 'political']}, {'long_name': 'Greater Geelong City', 'short_name': 'Greater Geelong', 'types': ['administrative_area_level_2', 'political']}, {'long_name': 'Victoria', 'short_name': 'VIC', 'types': ['administrative_area_level_1', 'political']}, {'long_name': 'Australia', 'short_name': 'AU', 'types': ['country', 'political']}, {'long_name': '3219', 'short_name': '3219', 'types': ['postal_code']}], 'formatted_address': 'Shop 7/136 Ormond Rd, East Geelong VIC 3219, Australia', 'formatted_phone_number': '(03) 5221 3309', 'url': 'https://maps.google.com/?cid=4972763739746594426', 'website': 'https://apm.net.au/?utm_source=google&utm_medium=organic&utm_campaign=gmb&utm_term=vic&utm_content=east-geelong'}, 'status': 'OK'}]"
DES-Employment Support Service,APM Employment Services,ECHUCA,VIC,All Client Types,3,"[{'candidates': [{'geometry': {'location': {'lat': -36.1242786, 'lng': 144.7467396}, 'viewport': {'northeast': {'lat': -36.12290892010728, 'lng': 144.7482222798927}, 'southwest': {'lat': -36.12560857989272, 'lng': 144.7455226201073}}}, 'name': 'APM', 'opening_hours': {'open_now': False}, 'place_id': 'ChIJTwykmygD2WoRC5UlMU9SHGQ'}], 'status': 'OK'}]","[{'html_attributions': [], 'result': {'address_components': [{'long_name': '501', 'short_name': '501', 'types': ['street_number']}, {'long_name': 'High Street', 'short_name': 'High St', 'types': ['route']}, {'long_name': 'Echuca', 'short_name': 'Echuca', 'types': ['locality', 'political']}, {'long_name': 'Campaspe Shire', 'short_name': 'Campaspe', 'types': ['administrative_area_level_2', 'political']}, {'long_name': 'Victoria', 'short_name': 'VIC', 'types': ['administrative_area_level_1', 'political']}, {'long_name': 'Australia', 'short_name': 'AU', 'types': ['country', 'political']}, {'long_name': '3564', 'short_name': '3564', 'types': ['postal_code']}], 'formatted_address': '501 High St, Echuca VIC 3564, Australia', 'formatted_phone_number': '(03) 5480 3184', 'url': 'https://maps.google.com/?cid=7213731203221132555', 'website': 'https://apm.net.au/?utm_source=google&utm_medium=organic&utm_campaign=gmb&utm_term=vic&utm_content=echuca'}, 'status': 'OK'}]"
DES-Disability Management Service,APM Employment Services,ENSAY,VIC,Mental Health,5,"[{'candidates': [{'geometry': {'location': {'lat': -37.3754439, 'lng': 147.8352144}, 'viewport': {'northeast': {'lat': -37.37413252010728, 'lng': 147.8365980298927}, 'southwest': {'lat': -37.37683217989272, 'lng': 147.8338983701073}}}, 'name': 'APM', 'place_id': 'ChIJm4U9hJcbJWsRuozPJ08KYNI'}], 'status': 'OK'}]","[{'html_attributions': [], 'result': {'address_components': [{'long_name': 'Community Health Centre', 'short_name': 'Community Health Centre', 'types': ['point_of_interest', 'establishment']}, {'long_name': '5063', 'short_name': '5063', 'types': ['street_number']}, {'long_name': 'Great Alpine Road', 'short_name': 'Great Alpine Rd', 'types': ['route']}, {'long_name': 'Ensay', 'short_name': 'Ensay', 'types': ['locality', 'political']}, {'long_name': 'East Gippsland Shire', 'short_name': 'East Gippsland', 'types': ['administrative_area_level_2', 'political']}, {'long_name': 'Victoria', 'short_name': 'VIC', 'types': ['administrative_area_level_1', 'political']}, {'long_name': 'Australia', 'short_name': 'AU', 'types': ['country', 'political']}, {'long_name': '3895', 'short_name': '3895', 'types': ['postal_code']}], 'formatted_address': 'Community Health Centre, 5063 Great Alpine Rd, Ensay VIC 3895, Australia', 'formatted_phone_number': '(03) 5152 6204', 'url': 'https://maps.google.com/?cid=15159127680815697082', 'website': 'https://apm.net.au/?utm_source=google&utm_medium=organic&utm_campaign=gmb&utm_term=vic&utm_content=ensay'}, 'status': 'OK'}]"
DES-Employment Support Service,APM Employment Services,ENSAY,VIC,All Client Types,4,"[{'candidates': [{'geometry': {'location': {'lat': -37.3754439, 'lng': 147.8352144}, 'viewport': {'northeast': {'lat': -37.37413252010728, 'lng': 147.8365980298927}, 'southwest': {'lat': -37.37683217989272, 'lng': 147.8338983701073}}}, 'name': 'APM', 'place_id': 'ChIJm4U9hJcbJWsRuozPJ08KYNI'}], 'status': 'OK'}]","[{'html_attributions': [], 'result': {'address_components': [{'long_name': 'Community Health Centre', 'short_name': 'Community Health Centre', 'types': ['point_of_interest', 'establishment']}, {'long_name': '5063', 'short_name': '5063', 'types': ['street_number']}, {'long_name': 'Great Alpine Road', 'short_name': 'Great Alpine Rd', 'types': ['route']}, {'long_name': 'Ensay', 'short_name': 'Ensay', 'types': ['locality', 'political']}, {'long_name': 'East Gippsland Shire', 'short_name': 'East Gippsland', 'types': ['administrative_area_level_2', 'political']}, {'long_name': 'Victoria', 'short_name': 'VIC', 'types': ['administrative_area_level_1', 'political']}, {'long_name': 'Australia', 'short_name': 'AU', 'types': ['country', 'political']}, {'long_name': '3895', 'short_name': '3895', 'types': ['postal_code']}], 'formatted_address': 'Community Health Centre, 5063 Great Alpine Rd, Ensay VIC 3895, Australia', 'formatted_phone_number': '(03) 5152 6204', 'url': 'https://maps.google.com/?cid=15159127680815697082', 'website': 'https://apm.net.au/?utm_source=google&utm_medium=organic&utm_campaign=gmb&utm_term=vic&utm_content=ensay'}, 'status': 'OK'}]"
DES-Employment Support Service,APM Employment Services,EPPING,VIC,All Client Types,3,"[{'candidates': [{'geometry': {'location': {'lat': -37.6543056, 'lng': 145.0235395}, 'viewport': {'northeast': {'lat': -37.65294702010728, 'lng': 145.0248864798927}, 'southwest': {'lat': -37.65564667989272, 'lng': 145.0221868201072}}}, 'name': 'APM', 'opening_hours': {'open_now': False}, 'place_id': 'ChIJ2VtJy-tO1moRuyU56Jatisc'}], 'status': 'OK'}]","[{'html_attributions': [], 'result': {'address_components': [{'long_name': 'Showroom 1B', 'short_name': 'Showroom 1B', 'types': ['subpremise']}, {'long_name': 'Epping Hub', 'short_name': 'Epping Hub', 'types': ['point_of_interest', 'establishment']}, {'long_name': '560-650', 'short_name': '560-650', 'types': ['street_number']}, {'long_name': 'High Street', 'short_name': 'High St', 'types': ['route']}, {'long_name': 'Epping', 'short_name': 'Epping', 'types': ['locality', 'political']}, {'long_name': 'Whittlesea City', 'short_name': 'Whittlesea', 'types': ['administrative_area_level_2', 'political']}, {'long_name': 'Victoria', 'short_name': 'VIC', 'types': ['administrative_area_level_1', 'political']}, {'long_name': 'Australia', 'short_name': 'AU', 'types': ['country', 'political']}, {'long_name': '3076', 'short_name': '3076', 'types': ['postal_code']}], 'formatted_address': 'Epping Hub, Showroom 1B/560-650 High St, Epping VIC 3076, Australia', 'formatted_phone_number': '(03) 8405 3393', 'url': 'https://maps.google.com/?cid=14378495623986488763', 'website': 'https://apm.net.au/?utm_source=google&utm_medium=organic&utm_campaign=gmb&utm_term=vic&utm_content=epping'}, 'status': 'OK'}]"
DES-Employment Support Service,APM Employment Services,ESKDALE,VIC,All Client Types,3,"[{'candidates': [{'geometry': {'location': {'lat': -36.464401, 'lng': 147.2523427}, 'viewport': {'northeast': {'lat': -36.46320527010727, 'lng': 147.2536985298927}, 'southwest': {'lat': -36.46590492989272, 'lng': 147.2509988701073}}}, 'name': 'APM', 'place_id': 'ChIJkzP6LMALJGsRZJerkt8q29w'}], 'status': 'OK'}]","[{'html_attributions': [], 'result': {'address_components': [{'long_name': '3797', 'short_name': '3797', 'types': ['street_number']}, {'long_name': 'Omeo Highway', 'short_name': 'Omeo Hwy', 'types': ['route']}, {'long_name': 'Eskdale', 'short_name': 'Eskdale', 'types': ['locality', 'political']}, {'long_name': 'Towong Shire', 'short_name': 'Towong', 'types': ['administrative_area_level_2', 'political']}, {'long_name': 'Victoria', 'short_name': 'VIC', 'types': ['administrative_area_level_1', 'political']}, {'long_name': 'Australia', 'short_name': 'AU', 'types': ['country', 'political']}, {'long_name': '3701', 'short_name': '3701', 'types': ['postal_code']}], 'formatted_address': '3797 Omeo Hwy, Eskdale VIC 3701, Australia', 'formatted_phone_number': '(02) 6021 8740', 'url': 'https://maps.google.com/?cid=15914360847970572132', 'website': 'https://apm.net.au/?utm_source=google&utm_medium=organic&utm_campaign=gmb&utm_term=vic&utm_content=eskdale'}, 'status': 'OK'}]"
DES-Employment Support Service,APM Employment Services,FLEMINGTON,VIC,All Client Types,1,"[{'candidates': [{'geometry': {'location': {'lat': -37.78732, 'lng': 144.923583}, 'viewport': {'northeast': {'lat': -37.78604647010728, 'lng': 144.9249210798927}, 'southwest': {'lat': -37.78874612989272, 'lng': 144.9222214201073}}}, 'name': 'APM', 'opening_hours': {'open_now': False}, 'place_id': 'ChIJASLOOaVd1moRwJ5DdIMPBao'}], 'status': 'OK'}]","[{'html_attributions': [], 'result': {'address_components': [{'long_name': 'Rear, 506', 'short_name': 'Rear, 506', 'types': ['subpremise']}, {'long_name': '508', 'short_name': '508', 'types': ['street_number']}, {'long_name': 'Racecourse Road', 'short_name': 'Racecourse Rd', 'types': ['route']}, {'long_name': 'Flemington', 'short_name': 'Flemington', 'types': ['locality', 'political']}, {'long_name': 'Moonee Valley City', 'short_name': 'Moonee Valley', 'types': ['administrative_area_level_2', 'political']}, {'long_name': 'Victoria', 'short_name': 'VIC', 'types': ['administrative_area_level_1', 'political']}, {'long_name': 'Australia', 'short_name': 'AU', 'types': ['country', 'political']}, {'long_name': '3031', 'short_name': '3031', 'types': ['postal_code']}], 'formatted_address': 'Rear, 506/508 Racecourse Rd, Flemington VIC 3031, Australia', 'formatted_phone_number': '(03) 9372 2877', 'url': 'https://maps.google.com/?cid=12251215418597023424', 'website': 'https://apm.net.au/?utm_source=google&utm_medium=organic&utm_campaign=gmb&utm_term=vic&utm_content=flemington'}, 'status': 'OK'}]"
DES-Disability Management Service,APM Employment Services,FOOTSCRAY,VIC,Psychiatric Disability,3,"[{'candidates': [{'geometry': {'location': {'lat': -37.8004023, 'lng': 144.8937353}, 'viewport': {'northeast': {'lat': -37.79896277010727, 'lng': 144.8950999798927}, 'southwest': {'lat': -37.80166242989272, 'lng': 144.8924003201072}}}, 'name': 'APM', 'opening_hours': {'open_now': False}, 'place_id': 'ChIJlchW5_Jd1moRDX6PjVBCsZA'}], 'status': 'OK'}]","[{'html_attributions': [], 'result': {'address_components': [{'long_name': '121', 'short_name': '121', 'types': ['street_number']}, {'long_name': 'Paisley Street', 'short_name': 'Paisley St', 'types': ['route']}, {'long_name': 'Footscray', 'short_name': 'Footscray', 'types': ['locality', 'political']}, {'long_name': 'City of Maribyrnong', 'short_name': 'Maribyrnong', 'types': ['administrative_area_level_2', 'political']}, {'long_name': 'Victoria', 'short_name': 'VIC', 'types': ['administrative_area_level_1', 'political']}, {'long_name': 'Australia', 'short_name': 'AU', 'types': ['country', 'political']}, {'long_name': '3011', 'short_name': '3011', 'types': ['postal_code']}], 'formatted_address': '121 Paisley St, Footscray VIC 3011, Australia', 'formatted_phone_number': '(03) 9689 1050', 'url': 'https://maps.google.com/?cid=10426187526079217165', 'website': 'https://apm.net.au/?utm_source=google&utm_medium=organic&utm_campaign=gmb&utm_term=vic&utm_content=footscray'}, 'status': 'OK'}]"
DES-Employment Support Service,APM Employment Services,FOOTSCRAY,VIC,All Client Types,5,"[{'candidates': [{'geometry': {'location': {'lat': -37.8004023, 'lng': 144.8937353}, 'viewport': {'northeast': {'lat': -37.79896277010727, 'lng': 144.8950999798927}, 'southwest': {'lat': -37.80166242989272, 'lng': 144.8924003201072}}}, 'name': 'APM', 'opening_hours': {'open_now': False}, 'place_id': 'ChIJlchW5_Jd1moRDX6PjVBCsZA'}], 'status': 'OK'}]","[{'html_attributions': [], 'result': {'address_components': [{'long_name': '121', 'short_name': '121', 'types': ['street_number']}, {'long_name': 'Paisley Street', 'short_name': 'Paisley St', 'types': ['route']}, {'long_name': 'Footscray', 'short_name': 'Footscray', 'types': ['locality', 'political']}, {'long_name': 'City of Maribyrnong', 'short_name': 'Maribyrnong', 'types': ['administrative_area_level_2', 'political']}, {'long_name': 'Victoria', 'short_name': 'VIC', 'types': ['administrative_area_level_1', 'political']}, {'long_name': 'Australia', 'short_name': 'AU', 'types': ['country', 'political']}, {'long_name': '3011', 'short_name': '3011', 'types': ['postal_code']}], 'formatted_address': '121 Paisley St, Footscray VIC 3011, Australia', 'formatted_phone_number': '(03) 9689 1050', 'url': 'https://maps.google.com/?cid=10426187526079217165', 'website': 'https://apm.net.au/?utm_source=google&utm_medium=organic&utm_campaign=gmb&utm_term=vic&utm_content=footscray'}, 'status': 'OK'}]"
DES-Employment Support Service,APM Employment Services,FOSTER,VIC,All Client Types,3,"[{'candidates': [{'geometry': {'location': {'lat': -38.6536908, 'lng': 146.2023135}, 'viewport': {'northeast': {'lat': -38.65241522010727, 'lng': 146.2035101798928}, 'southwest': {'lat': -38.65511487989271, 'lng': 146.2008105201073}}}, 'name': 'APM', 'place_id': 'ChIJD2C-GhotKmsRt5ppAR8Law0'}], 'status': 'OK'}]","[{'html_attributions': [], 'result': {'address_components': [{'long_name': 'Station Road', 'short_name': 'Station Rd', 'types': ['route']}, {'long_name': 'Foster', 'short_name': 'Foster', 'types': ['locality', 'political']}, {'long_name': 'South Gippsland Shire', 'short_name': 'South Gippsland', 'types': ['administrative_area_level_2', 'political']}, {'long_name': 'Victoria', 'short_name': 'VIC', 'types': ['administrative_area_level_1', 'political']}, {'long_name': 'Australia', 'short_name': 'AU', 'types': ['country', 'political']}, {'long_name': '3960', 'short_name': '3960', 'types': ['postal_code']}], 'formatted_address': 'Station Rd, Foster VIC 3960, Australia', 'formatted_phone_number': '(03) 5135 3648', 'url': 'https://maps.google.com/?cid=966878772796693175', 'website': 'https://apm.net.au/?utm_source=google&utm_medium=organic&utm_campaign=gmb&utm_term=vic&utm_content=foster'}, 'status': 'OK'}]"
DES-Employment Support Service,APM Employment Services,FRANKSTON,VIC,All Client Types,3,"[{'candidates': [{'geometry': {'location': {'lat': -38.14478100000001, 'lng': 145.123553}, 'viewport': {'northeast': {'lat': -38.14351127010728, 'lng': 145.1249614798927}, 'southwest': {'lat': -38.14621092989272, 'lng': 145.1222618201073}}}, 'name': 'APM', 'opening_hours': {'open_now': False}, 'place_id': 'ChIJRy7YmrZ11moRaAO2i6IbutA'}], 'status': 'OK'}]","[{'html_attributions': [], 'result': {'address_components': [{'long_name': '126-128', 'short_name': '126-128', 'types': ['street_number']}, {'long_name': 'Young Street', 'short_name': 'Young St', 'types': ['route']}, {'long_name': 'Frankston', 'short_name': 'Frankston', 'types': ['locality', 'political']}, {'long_name': 'Frankston City', 'short_name': 'Frankston', 'types': ['administrative_area_level_2', 'political']}, {'long_name': 'Victoria', 'short_name': 'VIC', 'types': ['administrative_area_level_1', 'political']}, {'long_name': 'Australia', 'short_name': 'AU', 'types': ['country', 'political']}, {'long_name': '3199', 'short_name': '3199', 'types': ['postal_code']}], 'formatted_address': '126-128 Young St, Frankston VIC 3199, Australia', 'formatted_phone_number': '(03) 9770 2896', 'url': 'https://maps.google.com/?cid=15040364290499806056', 'website': 'https://apm.net.au/?utm_source=google&utm_medium=organic&utm_campaign=gmb&utm_term=vic&utm_content=frankston'}, 'status': 'OK'}]"
DES-Disability Management Service,APM Employment Services,GEELONG,VIC,Mental Health,2,"[{'candidates': [{'geometry': {'location': {'lat': -38.1464667, 'lng': 144.361385}, 'viewport': {'northeast': {'lat': -38.14508627010728, 'lng': 144.3626166798927}, 'southwest': {'lat': -38.14778592989273, 'lng': 144.3599170201073}}}, 'name': 'APM Geelong', 'opening_hours': {'open_now': False}, 'place_id': 'ChIJ95GnD5oV1GoRFOSVswRPUnU'}, {'geometry': {'location': {'lat': -38.1650202, 'lng': 144.3804561}, 'viewport': {'northeast': {'lat': -38.16362967010728, 'lng': 144.3818780298927}, 'southwest': {'lat': -38.16632932989273, 'lng': 144.3791783701073}}}, 'name': 'APM', 'opening_hours': {'open_now': False}, 'place_id': 'ChIJm8YXhDoU1GoReu6JQ0bOAkU'}], 'status': 'OK'}]","[{'html_attributions': [], 'result': {'address_components': [{'long_name': 'Suite 2', 'short_name': 'Suite 2', 'types': ['subpremise']}, {'long_name': '69-71', 'short_name': '69-71', 'types': ['street_number']}, {'long_name': 'Moorabool Street', 'short_name': 'Moorabool St', 'types': ['route']}, {'long_name': 'Geelong', 'short_name': 'Geelong', 'types': ['locality', 'political']}, {'long_name': 'Greater Geelong City', 'short_name': 'Greater Geelong', 'types': ['administrative_area_level_2', 'political']}, {'long_name': 'Victoria', 'short_name': 'VIC', 'types': ['administrative_area_level_1', 'political']}, {'long_name': 'Australia', 'short_name': 'AU', 'types': ['country', 'political']}, {'long_name': '3220', 'short_name': '3220', 'types': ['postal_code']}], 'formatted_address': 'Westpac Business Centre, Suite 2/69-71 Moorabool St, Geelong VIC 3220, Australia', 'formatted_phone_number': '(03) 5221 9671', 'url': 'https://maps.google.com/?cid=8453906332139250708', 'website': 'https://apm.net.au/?utm_source=google&utm_medium=organic&utm_campaign=gmb&utm_term=vic&utm_content=geelong'}, 'status': 'OK'}]"
DES-Employment Support Service,APM Employment Services,GEELONG,VIC,All Client Types,2,"[{'candidates': [{'geometry': {'location': {'lat': -38.1464667, 'lng': 144.361385}, 'viewport': {'northeast': {'lat': -38.14508627010728, 'lng': 144.3626166798927}, 'southwest': {'lat': -38.14778592989273, 'lng': 144.3599170201073}}}, 'name': 'APM Geelong', 'opening_hours': {'open_now': False}, 'place_id': 'ChIJ95GnD5oV1GoRFOSVswRPUnU'}, {'geometry': {'location': {'lat': -38.1650202, 'lng': 144.3804561}, 'viewport': {'northeast': {'lat': -38.16362967010728, 'lng': 144.3818780298927}, 'southwest': {'lat': -38.16632932989273, 'lng': 144.3791783701073}}}, 'name': 'APM', 'opening_hours': {'open_now': False}, 'place_id': 'ChIJm8YXhDoU1GoReu6JQ0bOAkU'}], 'status': 'OK'}]","[{'html_attributions': [], 'result': {'address_components': [{'long_name': 'Suite 2', 'short_name': 'Suite 2', 'types': ['subpremise']}, {'long_name': '69-71', 'short_name': '69-71', 'types': ['street_number']}, {'long_name': 'Moorabool Street', 'short_name': 'Moorabool St', 'types': ['route']}, {'long_name': 'Geelong', 'short_name': 'Geelong', 'types': ['locality', 'political']}, {'long_name': 'Greater Geelong City', 'short_name': 'Greater Geelong', 'types': ['administrative_area_level_2', 'political']}, {'long_name': 'Victoria', 'short_name': 'VIC', 'types': ['administrative_area_level_1', 'political']}, {'long_name': 'Australia', 'short_name': 'AU', 'types': ['country', 'political']}, {'long_name': '3220', 'short_name': '3220', 'types': ['postal_code']}], 'formatted_address': 'Westpac Business Centre, Suite 2/69-71 Moorabool St, Geelong VIC 3220, Australia', 'formatted_phone_number': '(03) 5221 9671', 'url': 'https://maps.google.com/?cid=8453906332139250708', 'website': 'https://apm.net.au/?utm_source=google&utm_medium=organic&utm_campaign=gmb&utm_term=vic&utm_content=geelong'}, 'status': 'OK'}]"
DES-Employment Support Service,APM Employment Services,GISBORNE,VIC,All Client Types,3,"[{'candidates': [{'geometry': {'location': {'lat': -37.487277, 'lng': 144.592765}, 'viewport': {'northeast': {'lat': -37.48601147010727, 'lng': 144.5942220298927}, 'southwest': {'lat': -37.48871112989271, 'lng': 144.5915223701073}}}, 'name': 'APM', 'place_id': 'ChIJq9vVScHl1moRTbIkwr_gNSk'}], 'status': 'OK'}]","[{'html_attributions': [], 'result': {'address_components': [{'long_name': '8a', 'short_name': '8a', 'types': ['street_number']}, {'long_name': 'Hamilton Street', 'short_name': 'Hamilton St', 'types': ['route']}, {'long_name': 'Gisborne', 'short_name': 'Gisborne', 'types': ['locality', 'political']}, {'long_name': 'Macedon Ranges Shire', 'short_name': 'Macedon Ranges', 'types': ['administrative_area_level_2', 'political']}, {'long_name': 'Victoria', 'short_name': 'VIC', 'types': ['administrative_area_level_1', 'political']}, {'long_name': 'Australia', 'short_name': 'AU', 'types': ['country', 'political']}, {'long_name': '3437', 'short_name': '3437', 'types': ['postal_code']}], 'formatted_address': 'Gisborne Community Centre, 8a Hamilton St, Gisborne VIC 3437, Australia', 'formatted_phone_number': '1300 366 047', 'url': 'https://maps.google.com/?cid=2969526643521270349', 'website': 'https://apm.net.au/?utm_source=google&utm_medium=organic&utm_campaign=gmb&utm_term=vic&utm_content=gisborne'}, 'status': 'OK'}]"
DES-Employment Support Service,APM Employment Services,GLEN WAVERLEY,VIC,All Client Types,3,"[{'candidates': [{'geometry': {'location': {'lat': -37.8809786, 'lng': 145.1612903}, 'viewport': {'northeast': {'lat': -37.87964377010728, 'lng': 145.1627928298927}, 'southwest': {'lat': -37.88234342989272, 'lng': 145.1600931701072}}}, 'name': 'APM Glen Waverley', 'opening_hours': {'open_now': False}, 'place_id': 'ChIJr3qgQcA_1moRGZ4hEQdFdHs'}], 'status': 'OK'}]","[{'html_attributions': [], 'result': {'address_components': [{'long_name': 'Suite 7', 'short_name': 'Suite 7', 'types': ['subpremise']}, {'long_name': '36-42', 'short_name': '36-42', 'types': ['street_number']}, {'long_name': 'Montclair Avenue', 'short_name': 'Montclair Ave', 'types': ['route']}, {'long_name': 'Glen Waverley', 'short_name': 'Glen Waverley', 'types': ['locality', 'political']}, {'long_name': 'Monash City', 'short_name': 'Monash', 'types': ['administrative_area_level_2', 'political']}, {'long_name': 'Victoria', 'short_name': 'VIC', 'types': ['administrative_area_level_1', 'political']}, {'long_name': 'Australia', 'short_name': 'AU', 'types': ['country', 'political']}, {'long_name': '3150', 'short_name': '3150', 'types': ['postal_code']}], 'formatted_address': 'Suite 7/36-42 Montclair Ave, Glen Waverley VIC 3150, Australia', 'formatted_phone_number': '(03) 9590 6884', 'url': 'https://maps.google.com/?cid=8895811060618075673', 'website': 'https://apm.net.au/?utm_source=google&utm_medium=organic&utm_campaign=gmb&utm_term=vic&utm_content=glen-waverley'}, 'status': 'OK'}]"
DES-Employment Support Service,APM Employment Services,GREENSBOROUGH,VIC,All Client Types,3,"[{'candidates': [{'geometry': {'location': {'lat': -37.7041918, 'lng': 145.1011753}, 'viewport': {'northeast': {'lat': -37.70293252010727, 'lng': 145.1025174298927}, 'southwest': {'lat': -37.70563217989272, 'lng': 145.0998177701073}}}, 'name': 'APM', 'opening_hours': {'open_now': False}, 'place_id': 'ChIJ47uam1tI1moRtzKzDPqlOoU'}], 'status': 'OK'}]","[{'html_attributions': [], 'result': {'address_components': [{'long_name': '1', 'short_name': '1', 'types': ['subpremise']}, {'long_name': '94-96', 'short_name': '94-96', 'types': ['street_number']}, {'long_name': 'Grimshaw Street', 'short_name': 'Grimshaw St', 'types': ['route']}, {'long_name': 'Greensborough', 'short_name': 'Greensborough', 'types': ['locality', 'political']}, {'long_name': 'Banyule City', 'short_name': 'Banyule', 'types': ['administrative_area_level_2', 'political']}, {'long_name': 'Victoria', 'short_name': 'VIC', 'types': ['administrative_area_level_1', 'political']}, {'long_name': 'Australia', 'short_name': 'AU', 'types': ['country', 'political']}, {'long_name': '3088', 'short_name': '3088', 'types': ['postal_code']}], 'formatted_address': '1/94-96 Grimshaw St, Greensborough VIC 3088, Australia', 'formatted_phone_number': '(03) 9432 0806', 'url': 'https://maps.google.com/?cid=9600168049067111095', 'website': 'https://apm.net.au/?utm_source=google&utm_medium=organic&utm_campaign=gmb&utm_term=vic&utm_content=greensborough'}, 'status': 'OK'}]"
DES-Employment Support Service,APM Employment Services,HASTINGS,VIC,All Client Types,5,"[{'candidates': [{'geometry': {'location': {'lat': -38.3070187, 'lng': 145.1906041}, 'viewport': {'northeast': {'lat': -38.30566897010728, 'lng': 145.1918963298928}, 'southwest': {'lat': -38.30836862989272, 'lng': 145.1891966701073}}}, 'name': 'APM', 'opening_hours': {'open_now': False}, 'place_id': 'ChIJs68VLcPn1WoRANvciFr4qOk'}], 'status': 'OK'}]","[{'html_attributions': [], 'result': {'address_components': [{'long_name': 'Shop 3', 'short_name': 'Shop 3', 'types': ['subpremise']}, {'long_name': '37', 'short_name': '37', 'types': ['street_number']}, {'long_name': 'Victoria Street', 'short_name': 'Victoria St', 'types': ['route']}, {'long_name': 'Hastings', 'short_name': 'Hastings', 'types': ['locality', 'political']}, {'long_name': 'Shire of Mornington Peninsula', 'short_name': 'Shire of Mornington Peninsula', 'types': ['administrative_area_level_2', 'political']}, {'long_name': 'Victoria', 'short_name': 'VIC', 'types': ['administrative_area_level_1', 'political']}, {'long_name': 'Australia', 'short_name': 'AU', 'types': ['country', 'political']}, {'long_name': '3915', 'short_name': '3915', 'types': ['postal_code']}], 'formatted_address': 'Shop 3/37 Victoria St, Hastings VIC 3915, Australia', 'formatted_phone_number': '(03) 5979 2132', 'url': 'https://maps.google.com/?cid=16836980274651519744', 'website': 'https://apm.net.au/?utm_source=google&utm_medium=organic&utm_campaign=gmb&utm_term=vic&utm_content=hastings'}, 'status': 'OK'}]"
DES-Employment Support Service,APM Employment Services,HEALESVILLE,VIC,All Client Types,2,"[{'candidates': [{'geometry': {'location': {'lat': -37.6555974, 'lng': 145.5244425}, 'viewport': {'northeast': {'lat': -37.65437852010728, 'lng': 145.5256267798927}, 'southwest': {'lat': -37.65707817989272, 'lng': 145.5229271201073}}}, 'name': 'APM', 'place_id': 'ChIJnd3JZQ0rKGsRnhZ-6I9vGJQ'}], 'status': 'OK'}]","[{'html_attributions': [], 'result': {'address_components': [{'long_name': 'Living & Learning Centre', 'short_name': 'Living & Learning Centre', 'types': ['point_of_interest', 'establishment']}, {'long_name': '1', 'short_name': '1', 'types': ['street_number']}, {'long_name': 'Badger Creek Road', 'short_name': 'Badger Creek Rd', 'types': ['route']}, {'long_name': 'Healesville', 'short_name': 'Healesville', 'types': ['locality', 'political']}, {'long_name': 'Yarra Ranges Shire', 'short_name': 'Yarra Ranges', 'types': ['administrative_area_level_2', 'political']}, {'long_name': 'Victoria', 'short_name': 'VIC', 'types': ['administrative_area_level_1', 'political']}, {'long_name': 'Australia', 'short_name': 'AU', 'types': ['country', 'political']}, {'long_name': '3777', 'short_name': '3777', 'types': ['postal_code']}], 'formatted_address': 'Living & Learning Centre, 1 Badger Creek Rd, Healesville VIC 3777, Australia', 'formatted_phone_number': '(03) 9738 7081', 'url': 'https://maps.google.com/?cid=10671401980925974174', 'website': 'https://apm.net.au/?utm_source=google&utm_medium=organic&utm_campaign=gmb&utm_term=vic&utm_content=healesville'}, 'status': 'OK'}]"
DES-Employment Support Service,APM Employment Services,HEATHCOTE,VIC,All Client Types,3,"[{'candidates': [{'geometry': {'location': {'lat': -36.9233879, 'lng': 144.7094406}, 'viewport': {'northeast': {'lat': -36.92200102010727, 'lng': 144.7108875298927}, 'southwest': {'lat': -36.92470067989272, 'lng': 144.7081878701073}}}, 'name': 'MatchWorks', 'place_id': 'ChIJtR4c4U1512oRKsU9ud3Fbks'}], 'status': 'OK'}]","[{'html_attributions': [], 'result': {'address_components': [{'long_name': '125', 'short_name': '125', 'types': ['street_number']}, {'long_name': 'High Street', 'short_name': 'High St', 'types': ['route']}, {'long_name': 'Heathcote', 'short_name': 'Heathcote', 'types': ['locality', 'political']}, {'long_name': 'Greater Bendigo City', 'short_name': 'Greater Bendigo', 'types': ['administrative_area_level_2', 'political']}, {'long_name': 'Victoria', 'short_name': 'VIC', 'types': ['administrative_area_level_1', 'political']}, {'long_name': 'Australia', 'short_name': 'AU', 'types': ['country', 'political']}, {'long_name': '3523', 'short_name': '3523', 'types': ['postal_code']}], 'formatted_address': '125 High St, Heathcote VIC 3523, Australia', 'formatted_phone_number': '(03) 5443 8777', 'url': 'https://maps.google.com/?cid=5435499356369044778', 'website': 'http://www.matchworks.com.au/'}, 'status': 'OK'}]"
DES-Employment Support Service,APM Employment Services,HEIDELBERG,VIC,All Client Types,2,"[{'candidates': [{'geometry': {'location': {'lat': -37.7567734, 'lng': 145.0624057}, 'viewport': {'northeast': {'lat': -37.75536852010728, 'lng': 145.0636875798927}, 'southwest': {'lat': -37.75806817989272, 'lng': 145.0609879201073}}}, 'name': 'APM', 'opening_hours': {'open_now': False}, 'place_id': 'ChIJ6_vO2ohG1moRGnMlPX_zzi8'}], 'status': 'OK'}]","[{'html_attributions': [], 'result': {'address_components': [{'long_name': '100B', 'short_name': '100B', 'types': ['street_number']}, {'long_name': 'Mount Street', 'short_name': 'Mount St', 'types': ['route']}, {'long_name': 'Heidelberg', 'short_name': 'Heidelberg', 'types': ['locality', 'political']}, {'long_name': 'Banyule City', 'short_name': 'Banyule', 'types': ['administrative_area_level_2', 'political']}, {'long_name': 'Victoria', 'short_name': 'VIC', 'types': ['administrative_area_level_1', 'political']}, {'long_name': 'Australia', 'short_name': 'AU', 'types': ['country', 'political']}, {'long_name': '3084', 'short_name': '3084', 'types': ['postal_code']}], 'formatted_address': '100B Mount St, Heidelberg VIC 3084, Australia', 'formatted_phone_number': '(03) 9457 7863', 'url': 'https://maps.google.com/?cid=3444958492797268762', 'website': 'https://apm.net.au/?utm_source=google&utm_medium=organic&utm_campaign=gmb&utm_term=vic&utm_content=heidelberg'}, 'status': 'OK'}]"
DES-Employment Support Service,APM Employment Services,INVERLOCH,VIC,All Client Types,3,"[{'candidates': [{'geometry': {'location': {'lat': -38.63319329999999, 'lng': 145.7278083}, 'viewport': {'northeast': {'lat': -38.63216497010728, 'lng': 145.7291068298927}, 'southwest': {'lat': -38.63486462989272, 'lng': 145.7264071701073}}}, 'name': 'APM', 'place_id': 'ChIJ30og5f4TKmsRzYYERUx1FuA'}, {'geometry': {'location': {'lat': -38.6039932, 'lng': 145.5859362}, 'viewport': {'northeast': {'lat': -38.60253097010728, 'lng': 145.5892578}, 'southwest': {'lat': -38.60523062989272, 'lng': 145.584829}}}, 'name': 'APM', 'place_id': 'ChIJ3eT2sYgMKmsRmSCG_i9i5yY'}], 'status': 'OK'}]","[{'html_attributions': [], 'result': {'address_components': [{'long_name': '16', 'short_name': '16', 'types': ['street_number']}, {'long_name': 'Abeckett Street', 'short_name': 'Abeckett St', 'types': ['route']}, {'long_name': 'Inverloch', 'short_name': 'Inverloch', 'types': ['locality', 'political']}, {'long_name': 'Bass Coast Shire', 'short_name': 'Bass Coast', 'types': ['administrative_area_level_2', 'political']}, {'long_name': 'Victoria', 'short_name': 'VIC', 'types': ['administrative_area_level_1', 'political']}, {'long_name': 'Australia', 'short_name': 'AU', 'types': ['country', 'political']}, {'long_name': '3996', 'short_name': '3996', 'types': ['postal_code']}], 'formatted_address': '16 Abeckett St, Inverloch VIC 3996, Australia', 'formatted_phone_number': '(03) 5174 5511', 'url': 'https://maps.google.com/?cid=16147222484419380941', 'website': 'https://apm.net.au/?utm_source=google&utm_medium=organic&utm_campaign=gmb&utm_term=vic&utm_content=inverloch'}, 'status': 'OK'}]"
DES-Disability Management Service,APM Employment Services,LAKES ENTRANCE,VIC,Mental Health,5,"[{'candidates': [{'geometry': {'location': {'lat': -37.8794365, 'lng': 147.9906312}, 'viewport': {'northeast': {'lat': -37.87812102010727, 'lng': 147.9921021798927}, 'southwest': {'lat': -37.88082067989271, 'lng': 147.9894025201073}}}, 'name': 'APM', 'opening_hours': {'open_now': False}, 'place_id': 'ChIJ5TYUfq9hJWsRxsKVwN-N0Po'}, {'geometry': {'location': {'lat': -37.7896113, 'lng': 148.102168}, 'viewport': {'northeast': {'lat': -37.78827927010728, 'lng': 148.1034849298927}, 'southwest': {'lat': -37.79097892989272, 'lng': 148.1007852701073}}}, 'name': 'APM', 'opening_hours': {'open_now': False}, 'place_id': 'ChIJZ8CrZp9bJWsRJUQiIFLdINc'}], 'status': 'OK'}]","[{'html_attributions': [], 'result': {'address_components': [{'long_name': 'Shop 3', 'short_name': 'Shop 3', 'types': ['subpremise']}, {'long_name': '3', 'short_name': '3', 'types': ['street_number']}, {'long_name': 'Carpenter Street', 'short_name': 'Carpenter St', 'types': ['route']}, {'long_name': 'Lakes Entrance', 'short_name': 'Lakes Entrance', 'types': ['locality', 'political']}, {'long_name': 'East Gippsland Shire', 'short_name': 'East Gippsland', 'types': ['administrative_area_level_2', 'political']}, {'long_name': 'Victoria', 'short_name': 'VIC', 'types': ['administrative_area_level_1', 'political']}, {'long_name': 'Australia', 'short_name': 'AU', 'types': ['country', 'political']}, {'long_name': '3909', 'short_name': '3909', 'types': ['postal_code']}], 'formatted_address': 'Shop 3/3 Carpenter St, Lakes Entrance VIC 3909, Australia', 'formatted_phone_number': '(03) 5155 2846', 'url': 'https://maps.google.com/?cid=18073101296786064070', 'website': 'https://apm.net.au/?utm_source=google&utm_medium=organic&utm_campaign=gmb&utm_term=vic&utm_content=lakes-entrance'}, 'status': 'OK'}]"
DES-Employment Support Service,APM Employment Services,LAKES ENTRANCE,VIC,All Client Types,3,"[{'candidates': [{'geometry': {'location': {'lat': -37.8794365, 'lng': 147.9906312}, 'viewport': {'northeast': {'lat': -37.87812102010727, 'lng': 147.9921021798927}, 'southwest': {'lat': -37.88082067989271, 'lng': 147.9894025201073}}}, 'name': 'APM', 'opening_hours': {'open_now': False}, 'place_id': 'ChIJ5TYUfq9hJWsRxsKVwN-N0Po'}, {'geometry': {'location': {'lat': -37.7896113, 'lng': 148.102168}, 'viewport': {'northeast': {'lat': -37.78827927010728, 'lng': 148.1034849298927}, 'southwest': {'lat': -37.79097892989272, 'lng': 148.1007852701073}}}, 'name': 'APM', 'opening_hours': {'open_now': False}, 'place_id': 'ChIJZ8CrZp9bJWsRJUQiIFLdINc'}], 'status': 'OK'}]","[{'html_attributions': [], 'result': {'address_components': [{'long_name': 'Shop 3', 'short_name': 'Shop 3', 'types': ['subpremise']}, {'long_name': '3', 'short_name': '3', 'types': ['street_number']}, {'long_name': 'Carpenter Street', 'short_name': 'Carpenter St', 'types': ['route']}, {'long_name': 'Lakes Entrance', 'short_name': 'Lakes Entrance', 'types': ['locality', 'political']}, {'long_name': 'East Gippsland Shire', 'short_name': 'East Gippsland', 'types': ['administrative_area_level_2', 'political']}, {'long_name': 'Victoria', 'short_name': 'VIC', 'types': ['administrative_area_level_1', 'political']}, {'long_name': 'Australia', 'short_name': 'AU', 'types': ['country', 'political']}, {'long_name': '3909', 'short_name': '3909', 'types': ['postal_code']}], 'formatted_address': 'Shop 3/3 Carpenter St, Lakes Entrance VIC 3909, Australia', 'formatted_phone_number': '(03) 5155 2846', 'url': 'https://maps.google.com/?cid=18073101296786064070', 'website': 'https://apm.net.au/?utm_source=google&utm_medium=organic&utm_campaign=gmb&utm_term=vic&utm_content=lakes-entrance'}, 'status': 'OK'}]"
DES-Employment Support Service,APM Employment Services,LEONGATHA,VIC,All Client Types,3,"[{'candidates': [{'geometry': {'location': {'lat': -38.478816, 'lng': 145.9467319}, 'viewport': {'northeast': {'lat': -38.47738802010728, 'lng': 145.9480515798927}, 'southwest': {'lat': -38.48008767989273, 'lng': 145.9453519201073}}}, 'name': 'APM', 'place_id': 'ChIJaUY3EbgnKmsRc7DNwU_3bzw'}], 'status': 'OK'}]","[{'html_attributions': [], 'result': {'address_components': [{'long_name': '1A', 'short_name': '1A', 'types': ['street_number']}, {'long_name': 'Church Street', 'short_name': 'Church St', 'types': ['route']}, {'long_name': 'Leongatha', 'short_name': 'Leongatha', 'types': ['locality', 'political']}, {'long_name': 'South Gippsland Shire', 'short_name': 'South Gippsland', 'types': ['administrative_area_level_2', 'political']}, {'long_name': 'Victoria', 'short_name': 'VIC', 'types': ['administrative_area_level_1', 'political']}, {'long_name': 'Australia', 'short_name': 'AU', 'types': ['country', 'political']}, {'long_name': '3953', 'short_name': '3953', 'types': ['postal_code']}], 'formatted_address': '1A Church St, Leongatha VIC 3953, Australia', 'formatted_phone_number': '(03) 5622 7010', 'url': 'https://maps.google.com/?cid=4354971286616518771', 'website': 'https://apm.net.au/?utm_source=google&utm_medium=organic&utm_campaign=gmb&utm_term=vic&utm_content=leongatha-duplicate'}, 'status': 'OK'}]"
DES-Employment Support Service,APM Employment Services,LILYDALE,VIC,All Client Types,2,"[{'candidates': [{'geometry': {'location': {'lat': -37.7569356, 'lng': 145.3532003}, 'viewport': {'northeast': {'lat': -37.75560512010728, 'lng': 145.3546800798927}, 'southwest': {'lat': -37.75830477989272, 'lng': 145.3519804201073}}}, 'name': 'APM', 'opening_hours': {'open_now': False}, 'place_id': 'ChIJ-5Q3AF4u1moRauzRV87r9Gk'}], 'status': 'OK'}]","[{'html_attributions': [], 'result': {'address_components': [{'long_name': '3', 'short_name': '3', 'types': ['subpremise']}, {'long_name': '5', 'short_name': '5', 'types': ['street_number']}, {'long_name': 'Castella Street', 'short_name': 'Castella St', 'types': ['route']}, {'long_name': 'Lilydale', 'short_name': 'Lilydale', 'types': ['locality', 'political']}, {'long_name': 'Yarra Ranges Shire', 'short_name': 'Yarra Ranges', 'types': ['administrative_area_level_2', 'political']}, {'long_name': 'Victoria', 'short_name': 'VIC', 'types': ['administrative_area_level_1', 'political']}, {'long_name': 'Australia', 'short_name': 'AU', 'types': ['country', 'political']}, {'long_name': '3140', 'short_name': '3140', 'types': ['postal_code']}], 'formatted_address': '3/5 Castella St, Lilydale VIC 3140, Australia', 'formatted_phone_number': '(03) 9738 7081', 'url': 'https://maps.google.com/?cid=7634986539768999018', 'website': 'https://apm.net.au/?utm_source=google&utm_medium=organic&utm_campaign=gmb&utm_term=vic&utm_content=lilydale'}, 'status': 'OK'}]"
DES-Disability Management Service,APM Employment Services,MAFFRA,VIC,Mental Health,5,"[{'candidates': [{'geometry': {'location': {'lat': -37.9682426, 'lng': 146.979186}, 'viewport': {'northeast': {'lat': -37.96697352010728, 'lng': 146.9804656298927}, 'southwest': {'lat': -37.96967317989272, 'lng': 146.9777659701073}}}, 'name': 'APM', 'place_id': 'ChIJoWFfsdMzL2sRMPGF-NhqxaE'}], 'status': 'OK'}]","[{'html_attributions': [], 'result': {'address_components': [{'long_name': '170', 'short_name': '170', 'types': ['street_number']}, {'long_name': 'Johnson Street', 'short_name': 'Johnson St', 'types': ['route']}, {'long_name': 'Maffra', 'short_name': 'Maffra', 'types': ['locality', 'political']}, {'long_name': 'Wellington Shire', 'short_name': 'Wellington', 'types': ['administrative_area_level_2', 'political']}, {'long_name': 'Victoria', 'short_name': 'VIC', 'types': ['administrative_area_level_1', 'political']}, {'long_name': 'Australia', 'short_name': 'AU', 'types': ['country', 'political']}, {'long_name': '3860', 'short_name': '3860', 'types': ['postal_code']}], 'formatted_address': '170 Johnson St, Maffra VIC 3860, Australia', 'formatted_phone_number': '(03) 5143 0571', 'url': 'https://maps.google.com/?cid=11656840690633404720', 'website': 'https://apm.net.au/?utm_source=google&utm_medium=organic&utm_campaign=gmb&utm_term=vic&utm_content=maffra'}, 'status': 'OK'}]"
DES-Employment Support Service,APM Employment Services,MAFFRA,VIC,All Client Types,4,"[{'candidates': [{'geometry': {'location': {'lat': -37.9682426, 'lng': 146.979186}, 'viewport': {'northeast': {'lat': -37.96697352010728, 'lng': 146.9804656298927}, 'southwest': {'lat': -37.96967317989272, 'lng': 146.9777659701073}}}, 'name': 'APM', 'place_id': 'ChIJoWFfsdMzL2sRMPGF-NhqxaE'}], 'status': 'OK'}]","[{'html_attributions': [], 'result': {'address_components': [{'long_name': '170', 'short_name': '170', 'types': ['street_number']}, {'long_name': 'Johnson Street', 'short_name': 'Johnson St', 'types': ['route']}, {'long_name': 'Maffra', 'short_name': 'Maffra', 'types': ['locality', 'political']}, {'long_name': 'Wellington Shire', 'short_name': 'Wellington', 'types': ['administrative_area_level_2', 'political']}, {'long_name': 'Victoria', 'short_name': 'VIC', 'types': ['administrative_area_level_1', 'political']}, {'long_name': 'Australia', 'short_name': 'AU', 'types': ['country', 'political']}, {'long_name': '3860', 'short_name': '3860', 'types': ['postal_code']}], 'formatted_address': '170 Johnson St, Maffra VIC 3860, Australia', 'formatted_phone_number': '(03) 5143 0571', 'url': 'https://maps.google.com/?cid=11656840690633404720', 'website': 'https://apm.net.au/?utm_source=google&utm_medium=organic&utm_campaign=gmb&utm_term=vic&utm_content=maffra'}, 'status': 'OK'}]"
DES-Disability Management Service,APM Employment Services,MALLACOOTA,VIC,Mental Health,5,"[{'candidates': [{'geometry': {'location': {'lat': -37.55862810000001, 'lng': 149.7508356}, 'viewport': {'northeast': {'lat': -37.55727777010728, 'lng': 149.7521815798927}, 'southwest': {'lat': -37.55997742989273, 'lng': 149.7494819201073}}}, 'name': 'APM', 'place_id': 'ChIJMUrNFezfO2sRdlBaKPD-jGE'}], 'status': 'OK'}]","[{'html_attributions': [], 'result': {'address_components': [{'long_name': 'Mattsson Street', 'short_name': 'Mattsson St', 'types': ['route']}, {'long_name': 'Mallacoota', 'short_name': 'Mallacoota', 'types': ['locality', 'political']}, {'long_name': 'East Gippsland Shire', 'short_name': 'East Gippsland', 'types': ['administrative_area_level_2', 'political']}, {'long_name': 'Victoria', 'short_name': 'VIC', 'types': ['administrative_area_level_1', 'political']}, {'long_name': 'Australia', 'short_name': 'AU', 'types': ['country', 'political']}, {'long_name': '3892', 'short_name': '3892', 'types': ['postal_code']}], 'formatted_address': 'Mallacoota District Health & Support Service Cnr Genoa Road &, Mattsson St, Mallacoota VIC 3892, Australia', 'formatted_phone_number': '(03) 5143 0571', 'url': 'https://maps.google.com/?cid=7029273425841115254', 'website': 'https://apm.net.au/?utm_source=google&utm_medium=organic&utm_campaign=gmb&utm_term=vic&utm_content=mallacoota'}, 'status': 'OK'}]"
DES-Employment Support Service,APM Employment Services,MALLACOOTA,VIC,All Client Types,New Site,"[{'candidates': [{'geometry': {'location': {'lat': -37.55862810000001, 'lng': 149.7508356}, 'viewport': {'northeast': {'lat': -37.55727777010728, 'lng': 149.7521815798927}, 'southwest': {'lat': -37.55997742989273, 'lng': 149.7494819201073}}}, 'name': 'APM', 'place_id': 'ChIJMUrNFezfO2sRdlBaKPD-jGE'}], 'status': 'OK'}]","[{'html_attributions': [], 'result': {'address_components': [{'long_name': 'Mattsson Street', 'short_name': 'Mattsson St', 'types': ['route']}, {'long_name': 'Mallacoota', 'short_name': 'Mallacoota', 'types': ['locality', 'political']}, {'long_name': 'East Gippsland Shire', 'short_name': 'East Gippsland', 'types': ['administrative_area_level_2', 'political']}, {'long_name': 'Victoria', 'short_name': 'VIC', 'types': ['administrative_area_level_1', 'political']}, {'long_name': 'Australia', 'short_name': 'AU', 'types': ['country', 'political']}, {'long_name': '3892', 'short_name': '3892', 'types': ['postal_code']}], 'formatted_address': 'Mallacoota District Health & Support Service Cnr Genoa Road &, Mattsson St, Mallacoota VIC 3892, Australia', 'formatted_phone_number': '(03) 5143 0571', 'url': 'https://maps.google.com/?cid=7029273425841115254', 'website': 'https://apm.net.au/?utm_source=google&utm_medium=organic&utm_campaign=gmb&utm_term=vic&utm_content=mallacoota'}, 'status': 'OK'}]"
DES-Employment Support Service,APM Employment Services,MARYBOROUGH,VIC,All Client Types,3,"[{'candidates': [{'geometry': {'location': {'lat': -37.046938, 'lng': 143.7417911}, 'viewport': {'northeast': {'lat': -37.04547467010727, 'lng': 143.7430333798927}, 'southwest': {'lat': -37.04817432989272, 'lng': 143.7403337201073}}}, 'name': 'APM', 'opening_hours': {'open_now': False}, 'place_id': 'ChIJXYtfRYnf0GoR5Q9GNWxuOVI'}], 'status': 'OK'}]","[{'html_attributions': [], 'result': {'address_components': [{'long_name': ""Goldfields Children's Centre"", 'short_name': ""Goldfields Children's Centre"", 'types': ['point_of_interest', 'establishment']}, {'long_name': '100', 'short_name': '100', 'types': ['street_number']}, {'long_name': 'Napier Street', 'short_name': 'Napier St', 'types': ['route']}, {'long_name': 'Maryborough', 'short_name': 'Maryborough', 'types': ['locality', 'political']}, {'long_name': 'Central Goldfields Shire', 'short_name': 'Central Goldfields', 'types': ['administrative_area_level_2', 'political']}, {'long_name': 'Victoria', 'short_name': 'VIC', 'types': ['administrative_area_level_1', 'political']}, {'long_name': 'Australia', 'short_name': 'AU', 'types': ['country', 'political']}, {'long_name': '3465', 'short_name': '3465', 'types': ['postal_code']}], 'formatted_address': ""Goldfields Children's Centre, 100 Napier St, Maryborough VIC 3465, Australia"", 'formatted_phone_number': '(03) 5441 8515', 'url': 'https://maps.google.com/?cid=5924888195811905509', 'website': 'https://apm.net.au/?utm_source=google&utm_medium=organic&utm_campaign=gmb&utm_term=vic&utm_content=maryborough'}, 'status': 'OK'}]"
DES-Disability Management Service,APM Employment Services,MELTON,VIC,Psychiatric Disability,4,"[{'candidates': [{'geometry': {'location': {'lat': -37.6841898, 'lng': 144.5839292}, 'viewport': {'northeast': {'lat': -37.68273567010728, 'lng': 144.5852665298927}, 'southwest': {'lat': -37.68543532989272, 'lng': 144.5825668701073}}}, 'name': 'APM', 'opening_hours': {'open_now': False}, 'place_id': 'ChIJO8eeOD7t1moRJi5IuJbxvO8'}], 'status': 'OK'}]","[{'html_attributions': [], 'result': {'address_components': [{'long_name': '47', 'short_name': '47', 'types': ['street_number']}, {'long_name': 'Bakery Square', 'short_name': 'Bakery Square', 'types': ['route']}, {'long_name': 'Melton', 'short_name': 'Melton', 'types': ['locality', 'political']}, {'long_name': 'Melton City', 'short_name': 'Melton', 'types': ['administrative_area_level_2', 'political']}, {'long_name': 'Victoria', 'short_name': 'VIC', 'types': ['administrative_area_level_1', 'political']}, {'long_name': 'Australia', 'short_name': 'AU', 'types': ['country', 'political']}, {'long_name': '3337', 'short_name': '3337', 'types': ['postal_code']}], 'formatted_address': '47 Bakery Square, Melton VIC 3337, Australia', 'formatted_phone_number': '(03) 9747 2061', 'url': 'https://maps.google.com/?cid=17274947900325506598', 'website': 'https://apm.net.au/?utm_source=google&utm_medium=organic&utm_campaign=gmb&utm_term=vic&utm_content=melton'}, 'status': 'OK'}]"
DES-Employment Support Service,APM Employment Services,MELTON,VIC,All Client Types,4,"[{'candidates': [{'geometry': {'location': {'lat': -37.6841898, 'lng': 144.5839292}, 'viewport': {'northeast': {'lat': -37.68273567010728, 'lng': 144.5852665298927}, 'southwest': {'lat': -37.68543532989272, 'lng': 144.5825668701073}}}, 'name': 'APM', 'opening_hours': {'open_now': False}, 'place_id': 'ChIJO8eeOD7t1moRJi5IuJbxvO8'}], 'status': 'OK'}]","[{'html_attributions': [], 'result': {'address_components': [{'long_name': '47', 'short_name': '47', 'types': ['street_number']}, {'long_name': 'Bakery Square', 'short_name': 'Bakery Square', 'types': ['route']}, {'long_name': 'Melton', 'short_name': 'Melton', 'types': ['locality', 'political']}, {'long_name': 'Melton City', 'short_name': 'Melton', 'types': ['administrative_area_level_2', 'political']}, {'long_name': 'Victoria', 'short_name': 'VIC', 'types': ['administrative_area_level_1', 'political']}, {'long_name': 'Australia', 'short_name': 'AU', 'types': ['country', 'political']}, {'long_name': '3337', 'short_name': '3337', 'types': ['postal_code']}], 'formatted_address': '47 Bakery Square, Melton VIC 3337, Australia', 'formatted_phone_number': '(03) 9747 2061', 'url': 'https://maps.google.com/?cid=17274947900325506598', 'website': 'https://apm.net.au/?utm_source=google&utm_medium=organic&utm_campaign=gmb&utm_term=vic&utm_content=melton'}, 'status': 'OK'}]"
DES-Employment Support Service,APM Employment Services,MOE,VIC,All Client Types,3,"[{'candidates': [{'geometry': {'location': {'lat': -38.1765462, 'lng': 146.2606}, 'viewport': {'northeast': {'lat': -38.17510407010727, 'lng': 146.2619374798927}, 'southwest': {'lat': -38.17780372989272, 'lng': 146.2592378201073}}}, 'name': 'APM', 'opening_hours': {'open_now': False}, 'place_id': 'ChIJ5clffusJKWsRkVXtuOVWZME'}], 'status': 'OK'}]","[{'html_attributions': [], 'result': {'address_components': [{'long_name': '29', 'short_name': '29', 'types': ['street_number']}, {'long_name': 'George Street', 'short_name': 'George St', 'types': ['route']}, {'long_name': 'Moe', 'short_name': 'Moe', 'types': ['locality', 'political']}, {'long_name': 'Latrobe City', 'short_name': 'Latrobe', 'types': ['administrative_area_level_2', 'political']}, {'long_name': 'Victoria', 'short_name': 'VIC', 'types': ['administrative_area_level_1', 'political']}, {'long_name': 'Australia', 'short_name': 'AU', 'types': ['country', 'political']}, {'long_name': '3825', 'short_name': '3825', 'types': ['postal_code']}], 'formatted_address': 'Latrobe City Council Service Centre, 29 George St, Moe VIC 3825, Australia', 'formatted_phone_number': '(03) 5135 3648', 'url': 'https://maps.google.com/?cid=13935358691641218449', 'website': 'https://apm.net.au/?utm_source=google&utm_medium=organic&utm_campaign=gmb&utm_term=vic&utm_content=moe'},